[{"id":1262,"name":"2351 All-To-Eat","category":"restaurantes","nicho":"cafes","score":82,"lat":38.5524527,"lng":-28.4436226,"municipality":"Pico, Acores","phone":null,"email":null,"website":null,"whatsapp":null,"address":null,"has_website":false,"has_booking":false,"has_analytics":false,"has_facebook_pixel":false,"has_ssl":false,"is_mobile_friendly":false,"gaps":["sem_website","sem_reservas","sem_whatsapp","sem_analytics","sem_facebook_pixel"],"status":"pendente"},{"id":244,"name":"3/4 café","category":"restaurantes","nicho":"cafes","score":82,"lat":37.7432875,"lng":-25.6688002,"municipality":"Sao Miguel, Acores","phone":null,"email":null,"website":null,"whatsapp":null,"address":"Rua Doutor Guilherme Poças 10, Ponta Delgada (São Sebastião), 9500-100","has_website":false,"has_booking":false,"has_analytics":false,"has_facebook_pixel":false,"has_ssl":false,"is_mobile_friendly":false,"gaps":["sem_website","sem_reservas","sem_whatsapp","sem_analytics","sem_facebook_pixel"],"status":"pendente"},{"id":964,"name":"A Canadinha","category":"restaurantes","nicho":"restaurantes","score":82,"lat":38.6553321,"lng":-27.2115737,"municipality":"Terceira, Acores","phone":null,"email":null,"website":null,"whatsapp":null,"address":null,"has_website":false,"has_booking":false,"has_analytics":false,"has_facebook_pixel":false,"has_ssl":false,"is_mobile_friendly":false,"gaps":["sem_website","sem_reservas","sem_whatsapp","sem_analytics","sem_facebook_pixel"],"status":"pendente"},{"id":135,"name":"A Casa do Abel","category":"restaurantes","nicho":"restaurantes","score":82,"lat":37.720524,"lng":-25.5111004,"municipality":"Sao Miguel, Acores","phone":"+351 296 913 954","email":null,"website":null,"whatsapp":null,"address":"Largo Do Barracão 1, Água de Pau, 9560-226","has_website":false,"has_booking":false,"has_analytics":false,"has_facebook_pixel":false,"has_ssl":false,"is_mobile_friendly":false,"gaps":["sem_website","sem_reservas","sem_whatsapp","sem_analytics","sem_facebook_pixel"],"status":"pendente"},{"id":132,"name":"A Comercial - Cervejaria da Cidade","category":"restaurantes","nicho":"restaurantes","score":82,"lat":37.740885,"lng":-25.6695643,"municipality":"Sao Miguel, Acores","phone":null,"email":null,"website":null,"whatsapp":null,"address":"Rua Machado dos Santos 75","has_website":false,"has_booking":false,"has_analytics":false,"has_facebook_pixel":false,"has_ssl":false,"is_mobile_friendly":false,"gaps":["sem_website","sem_reservas","sem_whatsapp","sem_analytics","sem_facebook_pixel"],"status":"pendente"},{"id":1205,"name":"A Oficina","category":"servicos","nicho":"garagens","score":82,"lat":38.5225101,"lng":-28.6771759,"municipality":"Faial, Acores","phone":null,"email":null,"website":null,"whatsapp":null,"address":"Rua dos Quinhões, Feteira, 9900-371","has_website":false,"has_booking":false,"has_analytics":false,"has_facebook_pixel":false,"has_ssl":false,"is_mobile_friendly":false,"gaps":["sem_website","sem_reservas","sem_whatsapp","sem_analytics","sem_facebook_pixel"],"status":"pendente"},{"id":652,"name":"AL- Casa da Saudade","category":"alojamento","nicho":"alojamento_local","score":82,"lat":37.7430972,"lng":-25.6594618,"municipality":"Sao Miguel, Acores","phone":null,"email":null,"website":null,"whatsapp":null,"address":null,"has_website":false,"has_booking":false,"has_analytics":false,"has_facebook_pixel":false,"has_ssl":false,"is_mobile_friendly":false,"gaps":["sem_website","sem_reservas","sem_whatsapp","sem_analytics","sem_facebook_pixel"],"status":"pendente"},{"id":322,"name":"AV VA Praia Café","category":"restaurantes","nicho":"cafes","score":82,"lat":37.7172406,"lng":-25.4262539,"municipality":"Sao Miguel, Acores","phone":null,"email":null,"website":null,"whatsapp":null,"address":"Rua Engenheiro Manuel António Martins Mota, 9680-029","has_website":false,"has_booking":false,"has_analytics":false,"has_facebook_pixel":false,"has_ssl":false,"is_mobile_friendly":false,"gaps":["sem_website","sem_reservas","sem_whatsapp","sem_analytics","sem_facebook_pixel"],"status":"pendente"},{"id":955,"name":"Adega Fado","category":"restaurantes","nicho":"restaurantes","score":82,"lat":38.7325585,"lng":-27.0581781,"municipality":"Terceira, Acores","phone":null,"email":null,"website":null,"whatsapp":null,"address":null,"has_website":false,"has_booking":false,"has_analytics":false,"has_facebook_pixel":false,"has_ssl":false,"is_mobile_friendly":false,"gaps":["sem_website","sem_reservas","sem_whatsapp","sem_analytics","sem_facebook_pixel"],"status":"pendente"},{"id":965,"name":"Adega Lusitânia","category":"restaurantes","nicho":"restaurantes","score":82,"lat":38.6572824,"lng":-27.2269932,"municipality":"Terceira, Acores","phone":null,"email":null,"website":null,"whatsapp":null,"address":"Rua de São Pedro","has_website":false,"has_booking":false,"has_analytics":false,"has_facebook_pixel":false,"has_ssl":false,"is_mobile_friendly":false,"gaps":["sem_website","sem_reservas","sem_whatsapp","sem_analytics","sem_facebook_pixel"],"status":"pendente"},{"id":950,"name":"Adega de São Mateus","category":"restaurantes","nicho":"restaurantes","score":82,"lat":38.6564759,"lng":-27.2696332,"municipality":"Terceira, Acores","phone":null,"email":null,"website":null,"whatsapp":null,"address":null,"has_website":false,"has_booking":false,"has_analytics":false,"has_facebook_pixel":false,"has_ssl":false,"is_mobile_friendly":false,"gaps":["sem_website","sem_reservas","sem_whatsapp","sem_analytics","sem_facebook_pixel"],"status":"pendente"},{"id":1172,"name":"Aero Peter","category":"restaurantes","nicho":"cafes","score":82,"lat":38.5214767,"lng":-28.7156456,"municipality":"Faial, Acores","phone":null,"email":null,"website":null,"whatsapp":null,"address":null,"has_website":false,"has_booking":false,"has_analytics":false,"has_facebook_pixel":false,"has_ssl":false,"is_mobile_friendly":false,"gaps":["sem_website","sem_reservas","sem_whatsapp","sem_analytics","sem_facebook_pixel"],"status":"pendente"},{"id":378,"name":"Aguinaldo","category":"restaurantes","nicho":"cafes","score":82,"lat":37.7214541,"lng":-25.5097128,"municipality":"Sao Miguel, Acores","phone":null,"email":null,"website":null,"whatsapp":null,"address":null,"has_website":false,"has_booking":false,"has_analytics":false,"has_facebook_pixel":false,"has_ssl":false,"is_mobile_friendly":false,"gaps":["sem_website","sem_reservas","sem_whatsapp","sem_analytics","sem_facebook_pixel"],"status":"pendente"},{"id":1115,"name":"Alberto Linhares","category":"servicos","nicho":"garagens","score":82,"lat":38.7941612,"lng":-27.2559295,"municipality":"Terceira, Acores","phone":null,"email":null,"website":null,"whatsapp":null,"address":null,"has_website":false,"has_booking":false,"has_analytics":false,"has_facebook_pixel":false,"has_ssl":false,"is_mobile_friendly":false,"gaps":["sem_website","sem_reservas","sem_whatsapp","sem_analytics","sem_facebook_pixel"],"status":"pendente"},{"id":1160,"name":"Aldinas Snack-Bar","category":"restaurantes","nicho":"cafes","score":82,"lat":38.6357845,"lng":-28.7133906,"municipality":"Faial, Acores","phone":null,"email":null,"website":null,"whatsapp":null,"address":"Estrada Regional 1-1, Cedros, 9900-343","has_website":false,"has_booking":false,"has_analytics":false,"has_facebook_pixel":false,"has_ssl":false,"is_mobile_friendly":false,"gaps":["sem_website","sem_reservas","sem_whatsapp","sem_analytics","sem_facebook_pixel"],"status":"pendente"},{"id":1203,"name":"Almeida & Filhos - Comércio de Sucata","category":"servicos","nicho":"garagens","score":82,"lat":38.6366314,"lng":-28.7102017,"municipality":"Faial, Acores","phone":null,"email":null,"website":null,"whatsapp":null,"address":null,"has_website":false,"has_booking":false,"has_analytics":false,"has_facebook_pixel":false,"has_ssl":false,"is_mobile_friendly":false,"gaps":["sem_website","sem_reservas","sem_whatsapp","sem_analytics","sem_facebook_pixel"],"status":"pendente"},{"id":619,"name":"Almeida's Apartments","category":"alojamento","nicho":"alojamento_local","score":82,"lat":37.7465617,"lng":-25.6604576,"municipality":"Sao Miguel, Acores","phone":null,"email":null,"website":null,"whatsapp":null,"address":"Rua Nova da Misericórdia 206, Ponta Delgada","has_website":false,"has_booking":false,"has_analytics":false,"has_facebook_pixel":false,"has_ssl":false,"is_mobile_friendly":false,"gaps":["sem_website","sem_reservas","sem_whatsapp","sem_analytics","sem_facebook_pixel"],"status":"pendente"},{"id":1341,"name":"Amuní","category":"restaurantes","nicho":"cafes","score":82,"lat":39.0847598,"lng":-28.0055747,"municipality":"Graciosa, Acores","phone":"+351 963 772 476","email":null,"website":null,"whatsapp":null,"address":null,"has_website":false,"has_booking":false,"has_analytics":false,"has_facebook_pixel":false,"has_ssl":false,"is_mobile_friendly":false,"gaps":["sem_website","sem_reservas","sem_whatsapp","sem_analytics","sem_facebook_pixel"],"status":"pendente"},{"id":884,"name":"Ananas Santo António","category":"servicos","nicho":"supermercados","score":82,"lat":37.7545255,"lng":-25.6430984,"municipality":"Sao Miguel, Acores","phone":null,"email":null,"website":null,"whatsapp":null,"address":null,"has_website":false,"has_booking":false,"has_analytics":false,"has_facebook_pixel":false,"has_ssl":false,"is_mobile_friendly":false,"gaps":["sem_website","sem_reservas","sem_whatsapp","sem_analytics","sem_facebook_pixel"],"status":"pendente"},{"id":940,"name":"Angra Iate Clube","category":"restaurantes","nicho":"restaurantes","score":82,"lat":38.651095,"lng":-27.214187,"municipality":"Terceira, Acores","phone":null,"email":null,"website":null,"whatsapp":null,"address":null,"has_website":false,"has_booking":false,"has_analytics":false,"has_facebook_pixel":false,"has_ssl":false,"is_mobile_friendly":false,"gaps":["sem_website","sem_reservas","sem_whatsapp","sem_analytics","sem_facebook_pixel"],"status":"pendente"},{"id":1330,"name":"Apolo 80","category":"restaurantes","nicho":"restaurantes","score":82,"lat":39.0847506,"lng":-28.0051785,"municipality":"Graciosa, Acores","phone":"+351 295 712 660","email":null,"website":null,"whatsapp":null,"address":"Rua Dom João IV 12","has_website":false,"has_booking":false,"has_analytics":false,"has_facebook_pixel":false,"has_ssl":false,"is_mobile_friendly":false,"gaps":["sem_website","sem_reservas","sem_whatsapp","sem_analytics","sem_facebook_pixel"],"status":"pendente"},{"id":223,"name":"Aroma das Ilhas","category":"restaurantes","nicho":"restaurantes","score":82,"lat":37.7431216,"lng":-25.5882841,"municipality":"Sao Miguel, Acores","phone":null,"email":null,"website":null,"whatsapp":null,"address":null,"has_website":false,"has_booking":false,"has_analytics":false,"has_facebook_pixel":false,"has_ssl":false,"is_mobile_friendly":false,"gaps":["sem_website","sem_reservas","sem_whatsapp","sem_analytics","sem_facebook_pixel"],"status":"pendente"},{"id":1180,"name":"Atafona do Calço","category":"restaurantes","nicho":"cafes","score":82,"lat":38.5654931,"lng":-28.6383842,"municipality":"Faial, Acores","phone":null,"email":null,"website":null,"whatsapp":null,"address":"Calço do Porto, Praia do Almoxarife, 9900-453","has_website":false,"has_booking":false,"has_analytics":false,"has_facebook_pixel":false,"has_ssl":false,"is_mobile_friendly":false,"gaps":["sem_website","sem_reservas","sem_whatsapp","sem_analytics","sem_facebook_pixel"],"status":"pendente"},{"id":1245,"name":"Atlántico tea and wine house","category":"restaurantes","nicho":"restaurantes","score":82,"lat":38.5262705,"lng":-28.536648,"municipality":"Pico, Acores","phone":null,"email":null,"website":null,"whatsapp":null,"address":null,"has_website":false,"has_booking":false,"has_analytics":false,"has_facebook_pixel":false,"has_ssl":false,"is_mobile_friendly":false,"gaps":["sem_website","sem_reservas","sem_whatsapp","sem_analytics","sem_facebook_pixel"],"status":"pendente"},{"id":778,"name":"Auto Cordeiro","category":"servicos","nicho":"garagens","score":82,"lat":37.7570849,"lng":-25.7064335,"municipality":"Sao Miguel, Acores","phone":null,"email":null,"website":null,"whatsapp":null,"address":null,"has_website":false,"has_booking":false,"has_analytics":false,"has_facebook_pixel":false,"has_ssl":false,"is_mobile_friendly":false,"gaps":["sem_website","sem_reservas","sem_whatsapp","sem_analytics","sem_facebook_pixel"],"status":"pendente"},{"id":1204,"name":"Auto Estrela Flamenguense","category":"servicos","nicho":"garagens","score":82,"lat":38.5485149,"lng":-28.6570537,"municipality":"Faial, Acores","phone":null,"email":null,"website":null,"whatsapp":null,"address":null,"has_website":false,"has_booking":false,"has_analytics":false,"has_facebook_pixel":false,"has_ssl":false,"is_mobile_friendly":false,"gaps":["sem_website","sem_reservas","sem_whatsapp","sem_analytics","sem_facebook_pixel"],"status":"pendente"},{"id":1114,"name":"Auto Fernandes","category":"servicos","nicho":"garagens","score":82,"lat":38.6563668,"lng":-27.1999625,"municipality":"Terceira, Acores","phone":"+351295628598","email":null,"website":null,"whatsapp":null,"address":"Grota do Vale 25, Angra do Heroismo, 9700-447","has_website":false,"has_booking":false,"has_analytics":false,"has_facebook_pixel":false,"has_ssl":false,"is_mobile_friendly":false,"gaps":["sem_website","sem_reservas","sem_whatsapp","sem_analytics","sem_facebook_pixel"],"status":"pendente"},{"id":774,"name":"Auto Feteira, Oficinas de Reparação","category":"servicos","nicho":"garagens","score":82,"lat":37.8502686,"lng":-25.2449045,"municipality":"Sao Miguel, Acores","phone":"+351 296 452 300","email":null,"website":null,"whatsapp":null,"address":"Estrada Regional, Feteira Grande - Santana, 9630-301","has_website":false,"has_booking":false,"has_analytics":false,"has_facebook_pixel":false,"has_ssl":false,"is_mobile_friendly":false,"gaps":["sem_website","sem_reservas","sem_whatsapp","sem_analytics","sem_facebook_pixel"],"status":"pendente"},{"id":789,"name":"Auto Litoral","category":"servicos","nicho":"garagens","score":82,"lat":37.7430842,"lng":-25.5862651,"municipality":"Sao Miguel, Acores","phone":null,"email":null,"website":null,"whatsapp":null,"address":null,"has_website":false,"has_booking":false,"has_analytics":false,"has_facebook_pixel":false,"has_ssl":false,"is_mobile_friendly":false,"gaps":["sem_website","sem_reservas","sem_whatsapp","sem_analytics","sem_facebook_pixel"],"status":"pendente"},{"id":1109,"name":"Auto Martins","category":"servicos","nicho":"garagens","score":82,"lat":38.6877245,"lng":-27.1782549,"municipality":"Terceira, Acores","phone":null,"email":null,"website":null,"whatsapp":null,"address":null,"has_website":false,"has_booking":false,"has_analytics":false,"has_facebook_pixel":false,"has_ssl":false,"is_mobile_friendly":false,"gaps":["sem_website","sem_reservas","sem_whatsapp","sem_analytics","sem_facebook_pixel"],"status":"pendente"},{"id":786,"name":"Auto Quental","category":"servicos","nicho":"garagens","score":82,"lat":37.7208851,"lng":-25.4406249,"municipality":"Sao Miguel, Acores","phone":"+351 296 583 264","email":null,"website":null,"whatsapp":null,"address":null,"has_website":false,"has_booking":false,"has_analytics":false,"has_facebook_pixel":false,"has_ssl":false,"is_mobile_friendly":false,"gaps":["sem_website","sem_reservas","sem_whatsapp","sem_analytics","sem_facebook_pixel"],"status":"pendente"},{"id":1209,"name":"Auto Reparações Andrade","category":"servicos","nicho":"garagens","score":82,"lat":38.5272634,"lng":-28.7225125,"municipality":"Faial, Acores","phone":null,"email":null,"website":null,"whatsapp":null,"address":"Rua das Cancelas 19, Castelo Branco, 9900-327","has_website":false,"has_booking":false,"has_analytics":false,"has_facebook_pixel":false,"has_ssl":false,"is_mobile_friendly":false,"gaps":["sem_website","sem_reservas","sem_whatsapp","sem_analytics","sem_facebook_pixel"],"status":"pendente"},{"id":1206,"name":"Auto Reparações Siluaf","category":"servicos","nicho":"garagens","score":82,"lat":38.5505172,"lng":-28.6272288,"municipality":"Faial, Acores","phone":"+351 292292333","email":null,"website":null,"whatsapp":null,"address":"Calçada da Lomba, Horta (Conceição), 9900-091","has_website":false,"has_booking":false,"has_analytics":false,"has_facebook_pixel":false,"has_ssl":false,"is_mobile_friendly":false,"gaps":["sem_website","sem_reservas","sem_whatsapp","sem_analytics","sem_facebook_pixel"],"status":"pendente"},{"id":788,"name":"Auto Serviço","category":"servicos","nicho":"garagens","score":82,"lat":37.7828657,"lng":-25.6942521,"municipality":"Sao Miguel, Acores","phone":null,"email":null,"website":null,"whatsapp":null,"address":null,"has_website":false,"has_booking":false,"has_analytics":false,"has_facebook_pixel":false,"has_ssl":false,"is_mobile_friendly":false,"gaps":["sem_website","sem_reservas","sem_whatsapp","sem_analytics","sem_facebook_pixel"],"status":"pendente"},{"id":790,"name":"AutoLima","category":"servicos","nicho":"garagens","score":82,"lat":37.7184266,"lng":-25.3889183,"municipality":"Sao Miguel, Acores","phone":null,"email":null,"website":null,"whatsapp":null,"address":null,"has_website":false,"has_booking":false,"has_analytics":false,"has_facebook_pixel":false,"has_ssl":false,"is_mobile_friendly":false,"gaps":["sem_website","sem_reservas","sem_whatsapp","sem_analytics","sem_facebook_pixel"],"status":"pendente"},{"id":1258,"name":"Avenica","category":"restaurantes","nicho":"cafes","score":82,"lat":38.5354957,"lng":-28.5272417,"municipality":"Pico, Acores","phone":null,"email":null,"website":null,"whatsapp":null,"address":null,"has_website":false,"has_booking":false,"has_analytics":false,"has_facebook_pixel":false,"has_ssl":false,"is_mobile_friendly":false,"gaps":["sem_website","sem_reservas","sem_whatsapp","sem_analytics","sem_facebook_pixel"],"status":"pendente"},{"id":1230,"name":"Aço Snack-Bar","category":"restaurantes","nicho":"restaurantes","score":82,"lat":38.5235372,"lng":-28.3165506,"municipality":"Pico, Acores","phone":"+351 292 642 243","email":null,"website":null,"whatsapp":null,"address":null,"has_website":false,"has_booking":false,"has_analytics":false,"has_facebook_pixel":false,"has_ssl":false,"is_mobile_friendly":false,"gaps":["sem_website","sem_reservas","sem_whatsapp","sem_analytics","sem_facebook_pixel"],"status":"pendente"},{"id":329,"name":"Açor Bar","category":"restaurantes","nicho":"cafes","score":82,"lat":37.820046,"lng":-25.6615931,"municipality":"Sao Miguel, Acores","phone":null,"email":null,"website":null,"whatsapp":null,"address":null,"has_website":false,"has_booking":false,"has_analytics":false,"has_facebook_pixel":false,"has_ssl":false,"is_mobile_friendly":false,"gaps":["sem_website","sem_reservas","sem_whatsapp","sem_analytics","sem_facebook_pixel"],"status":"pendente"},{"id":48,"name":"Açores Grill","category":"restaurantes","nicho":"restaurantes","score":82,"lat":37.7408475,"lng":-25.6617086,"municipality":"Sao Miguel, Acores","phone":null,"email":null,"website":null,"whatsapp":null,"address":"Rua do Calhau, Ponta Delgada, 9500-300","has_website":false,"has_booking":false,"has_analytics":false,"has_facebook_pixel":false,"has_ssl":false,"is_mobile_friendly":false,"gaps":["sem_website","sem_reservas","sem_whatsapp","sem_analytics","sem_facebook_pixel"],"status":"pendente"},{"id":892,"name":"BP","category":"servicos","nicho":"supermercados","score":82,"lat":37.7457144,"lng":-25.674663,"municipality":"Sao Miguel, Acores","phone":null,"email":null,"website":null,"whatsapp":null,"address":null,"has_website":false,"has_booking":false,"has_analytics":false,"has_facebook_pixel":false,"has_ssl":false,"is_mobile_friendly":false,"gaps":["sem_website","sem_reservas","sem_whatsapp","sem_analytics","sem_facebook_pixel"],"status":"pendente"},{"id":1264,"name":"Baleias café","category":"restaurantes","nicho":"cafes","score":82,"lat":38.3967499,"lng":-28.2535534,"municipality":"Pico, Acores","phone":"+351 292 672 653","email":null,"website":null,"whatsapp":null,"address":"Rua dos Baleeiros 13, 9930-143","has_website":false,"has_booking":false,"has_analytics":false,"has_facebook_pixel":false,"has_ssl":false,"is_mobile_friendly":false,"gaps":["sem_website","sem_reservas","sem_whatsapp","sem_analytics","sem_facebook_pixel"],"status":"pendente"},{"id":1319,"name":"Balneário","category":"restaurantes","nicho":"cafes","score":82,"lat":38.678058,"lng":-28.2078785,"municipality":"Sao Jorge, Acores","phone":null,"email":null,"website":null,"whatsapp":null,"address":null,"has_website":false,"has_booking":false,"has_analytics":false,"has_facebook_pixel":false,"has_ssl":false,"is_mobile_friendly":false,"gaps":["sem_website","sem_reservas","sem_whatsapp","sem_analytics","sem_facebook_pixel"],"status":"pendente"},{"id":1256,"name":"Bar Casa da Montanha","category":"restaurantes","nicho":"cafes","score":82,"lat":38.4705262,"lng":-28.4267475,"municipality":"Pico, Acores","phone":null,"email":null,"website":null,"whatsapp":null,"address":null,"has_website":false,"has_booking":false,"has_analytics":false,"has_facebook_pixel":false,"has_ssl":false,"is_mobile_friendly":false,"gaps":["sem_website","sem_reservas","sem_whatsapp","sem_analytics","sem_facebook_pixel"],"status":"pendente"},{"id":228,"name":"Bar Praia de Água d'Alto","category":"restaurantes","nicho":"restaurantes","score":82,"lat":37.7167882,"lng":-25.4725046,"municipality":"Sao Miguel, Acores","phone":null,"email":null,"website":null,"whatsapp":null,"address":null,"has_website":false,"has_booking":false,"has_analytics":false,"has_facebook_pixel":false,"has_ssl":false,"is_mobile_friendly":false,"gaps":["sem_website","sem_reservas","sem_whatsapp","sem_analytics","sem_facebook_pixel"],"status":"pendente"},{"id":474,"name":"Bar Vinha D'Areia","category":"restaurantes","nicho":"bares","score":82,"lat":37.7170685,"lng":-25.4270897,"municipality":"Sao Miguel, Acores","phone":null,"email":null,"website":null,"whatsapp":null,"address":null,"has_website":false,"has_booking":false,"has_analytics":false,"has_facebook_pixel":false,"has_ssl":false,"is_mobile_friendly":false,"gaps":["sem_website","sem_reservas","sem_whatsapp","sem_analytics","sem_facebook_pixel"],"status":"pendente"},{"id":1242,"name":"Bar da Gare","category":"restaurantes","nicho":"restaurantes","score":82,"lat":38.5357119,"lng":-28.5293575,"municipality":"Pico, Acores","phone":null,"email":null,"website":null,"whatsapp":null,"address":null,"has_website":false,"has_booking":false,"has_analytics":false,"has_facebook_pixel":false,"has_ssl":false,"is_mobile_friendly":false,"gaps":["sem_website","sem_reservas","sem_whatsapp","sem_analytics","sem_facebook_pixel"],"status":"pendente"},{"id":1054,"name":"Bar da Liga","category":"restaurantes","nicho":"cafes","score":82,"lat":38.7281419,"lng":-27.0713295,"municipality":"Terceira, Acores","phone":null,"email":null,"website":null,"whatsapp":null,"address":null,"has_website":false,"has_booking":false,"has_analytics":false,"has_facebook_pixel":false,"has_ssl":false,"is_mobile_friendly":false,"gaps":["sem_website","sem_reservas","sem_whatsapp","sem_analytics","sem_facebook_pixel"],"status":"pendente"},{"id":1255,"name":"Bar das Baixas","category":"restaurantes","nicho":"cafes","score":82,"lat":38.4192311,"lng":-28.3850602,"municipality":"Pico, Acores","phone":null,"email":null,"website":null,"whatsapp":null,"address":null,"has_website":false,"has_booking":false,"has_analytics":false,"has_facebook_pixel":false,"has_ssl":false,"is_mobile_friendly":false,"gaps":["sem_website","sem_reservas","sem_whatsapp","sem_analytics","sem_facebook_pixel"],"status":"pendente"},{"id":1268,"name":"Bar do Lajido","category":"restaurantes","nicho":"cafes","score":82,"lat":38.5570761,"lng":-28.42802,"municipality":"Pico, Acores","phone":null,"email":null,"website":null,"whatsapp":null,"address":null,"has_website":false,"has_booking":false,"has_analytics":false,"has_facebook_pixel":false,"has_ssl":false,"is_mobile_friendly":false,"gaps":["sem_website","sem_reservas","sem_whatsapp","sem_analytics","sem_facebook_pixel"],"status":"pendente"},{"id":275,"name":"Bar dos Poços","category":"restaurantes","nicho":"cafes","score":82,"lat":37.8344699,"lng":-25.6706672,"municipality":"Sao Miguel, Acores","phone":null,"email":null,"website":null,"whatsapp":null,"address":null,"has_website":false,"has_booking":false,"has_analytics":false,"has_facebook_pixel":false,"has_ssl":false,"is_mobile_friendly":false,"gaps":["sem_website","sem_reservas","sem_whatsapp","sem_analytics","sem_facebook_pixel"],"status":"pendente"},{"id":1101,"name":"Barba Silva","category":"saloes","nicho":"cabeleireiros","score":82,"lat":38.6556095,"lng":-27.2222321,"municipality":"Terceira, Acores","phone":null,"email":null,"website":null,"whatsapp":null,"address":null,"has_website":false,"has_booking":false,"has_analytics":false,"has_facebook_pixel":false,"has_ssl":false,"is_mobile_friendly":false,"gaps":["sem_website","sem_reservas","sem_whatsapp","sem_analytics","sem_facebook_pixel"],"status":"pendente"},{"id":765,"name":"Barbearia Nelo","category":"saloes","nicho":"cabeleireiros","score":82,"lat":37.7455321,"lng":-25.5747727,"municipality":"Sao Miguel, Acores","phone":null,"email":null,"website":null,"whatsapp":null,"address":"Rua Engenheiro Mota Amaral 4 A, 4","has_website":false,"has_booking":false,"has_analytics":false,"has_facebook_pixel":false,"has_ssl":false,"is_mobile_friendly":false,"gaps":["sem_website","sem_reservas","sem_whatsapp","sem_analytics","sem_facebook_pixel"],"status":"pendente"},{"id":762,"name":"Barbearia Porto","category":"saloes","nicho":"cabeleireiros","score":82,"lat":37.7420008,"lng":-25.6693455,"municipality":"Sao Miguel, Acores","phone":null,"email":null,"website":null,"whatsapp":null,"address":"Rua Carvalho Araújo 32","has_website":false,"has_booking":false,"has_analytics":false,"has_facebook_pixel":false,"has_ssl":false,"is_mobile_friendly":false,"gaps":["sem_website","sem_reservas","sem_whatsapp","sem_analytics","sem_facebook_pixel"],"status":"pendente"},{"id":1103,"name":"Barber JM","category":"saloes","nicho":"cabeleireiros","score":82,"lat":38.6552277,"lng":-27.1502176,"municipality":"Terceira, Acores","phone":null,"email":null,"website":null,"whatsapp":null,"address":null,"has_website":false,"has_booking":false,"has_analytics":false,"has_facebook_pixel":false,"has_ssl":false,"is_mobile_friendly":false,"gaps":["sem_website","sem_reservas","sem_whatsapp","sem_analytics","sem_facebook_pixel"],"status":"pendente"},{"id":1240,"name":"Baía do Calhau","category":"restaurantes","nicho":"restaurantes","score":82,"lat":38.4412356,"lng":-28.0565509,"municipality":"Pico, Acores","phone":null,"email":null,"website":null,"whatsapp":null,"address":null,"has_website":false,"has_booking":false,"has_analytics":false,"has_facebook_pixel":false,"has_ssl":false,"is_mobile_friendly":false,"gaps":["sem_website","sem_reservas","sem_whatsapp","sem_analytics","sem_facebook_pixel"],"status":"pendente"},{"id":395,"name":"Bebe e Lê","category":"restaurantes","nicho":"cafes","score":82,"lat":37.7488288,"lng":-25.6580426,"municipality":"Sao Miguel, Acores","phone":null,"email":null,"website":null,"whatsapp":null,"address":null,"has_website":false,"has_booking":false,"has_analytics":false,"has_facebook_pixel":false,"has_ssl":false,"is_mobile_friendly":false,"gaps":["sem_website","sem_reservas","sem_whatsapp","sem_analytics","sem_facebook_pixel"],"status":"pendente"},{"id":1313,"name":"Beira-Mar","category":"restaurantes","nicho":"cafes","score":82,"lat":38.6013505,"lng":-28.0106335,"municipality":"Sao Jorge, Acores","phone":null,"email":null,"website":null,"whatsapp":null,"address":null,"has_website":false,"has_booking":false,"has_analytics":false,"has_facebook_pixel":false,"has_ssl":false,"is_mobile_friendly":false,"gaps":["sem_website","sem_reservas","sem_whatsapp","sem_analytics","sem_facebook_pixel"],"status":"pendente"},{"id":850,"name":"Bioforma Açores","category":"servicos","nicho":"supermercados","score":82,"lat":37.7416772,"lng":-25.6709159,"municipality":"Sao Miguel, Acores","phone":null,"email":null,"website":null,"whatsapp":null,"address":"Rua do Castilho 34","has_website":false,"has_booking":false,"has_analytics":false,"has_facebook_pixel":false,"has_ssl":false,"is_mobile_friendly":false,"gaps":["sem_website","sem_reservas","sem_whatsapp","sem_analytics","sem_facebook_pixel"],"status":"pendente"},{"id":1034,"name":"Blues Resort Café","category":"restaurantes","nicho":"cafes","score":82,"lat":38.7305435,"lng":-27.0656165,"municipality":"Terceira, Acores","phone":null,"email":null,"website":null,"whatsapp":null,"address":null,"has_website":false,"has_booking":false,"has_analytics":false,"has_facebook_pixel":false,"has_ssl":false,"is_mobile_friendly":false,"gaps":["sem_website","sem_reservas","sem_whatsapp","sem_analytics","sem_facebook_pixel"],"status":"pendente"},{"id":921,"name":"Boavista","category":"servicos","nicho":"supermercados","score":82,"lat":37.7205445,"lng":-25.5133871,"municipality":"Sao Miguel, Acores","phone":"+351 296 913171","email":null,"website":null,"whatsapp":null,"address":"Rua Manuel Augusto Amaral 2, Água de Pau, 9560-260","has_website":false,"has_booking":false,"has_analytics":false,"has_facebook_pixel":false,"has_ssl":false,"is_mobile_friendly":false,"gaps":["sem_website","sem_reservas","sem_whatsapp","sem_analytics","sem_facebook_pixel"],"status":"pendente"},{"id":906,"name":"Bom Jesus","category":"servicos","nicho":"supermercados","score":82,"lat":37.8125487,"lng":-25.5849328,"municipality":"Sao Miguel, Acores","phone":null,"email":null,"website":null,"whatsapp":null,"address":null,"has_website":false,"has_booking":false,"has_analytics":false,"has_facebook_pixel":false,"has_ssl":false,"is_mobile_friendly":false,"gaps":["sem_website","sem_reservas","sem_whatsapp","sem_analytics","sem_facebook_pixel"],"status":"pendente"},{"id":332,"name":"Bom appetit","category":"restaurantes","nicho":"cafes","score":82,"lat":37.7396523,"lng":-25.6733646,"municipality":"Sao Miguel, Acores","phone":null,"email":null,"website":null,"whatsapp":null,"address":null,"has_website":false,"has_booking":false,"has_analytics":false,"has_facebook_pixel":false,"has_ssl":false,"is_mobile_friendly":false,"gaps":["sem_website","sem_reservas","sem_whatsapp","sem_analytics","sem_facebook_pixel"],"status":"pendente"},{"id":959,"name":"Bota Que Tem Vieira","category":"restaurantes","nicho":"restaurantes","score":82,"lat":38.6782643,"lng":-27.2290714,"municipality":"Terceira, Acores","phone":null,"email":null,"website":null,"whatsapp":null,"address":null,"has_website":false,"has_booking":false,"has_analytics":false,"has_facebook_pixel":false,"has_ssl":false,"is_mobile_friendly":false,"gaps":["sem_website","sem_reservas","sem_whatsapp","sem_analytics","sem_facebook_pixel"],"status":"pendente"},{"id":1315,"name":"Bota que tem","category":"restaurantes","nicho":"cafes","score":82,"lat":38.6658809,"lng":-28.1672078,"municipality":"Sao Jorge, Acores","phone":null,"email":null,"website":null,"whatsapp":null,"address":null,"has_website":false,"has_booking":false,"has_analytics":false,"has_facebook_pixel":false,"has_ssl":false,"is_mobile_friendly":false,"gaps":["sem_website","sem_reservas","sem_whatsapp","sem_analytics","sem_facebook_pixel"],"status":"pendente"},{"id":241,"name":"Botequim Açoriano","category":"restaurantes","nicho":"restaurantes","score":82,"lat":37.8157049,"lng":-25.5913845,"municipality":"Sao Miguel, Acores","phone":"+351 296 708 401","email":null,"website":null,"whatsapp":null,"address":"Estrada Regional, Rabo de Peixe, 9600-112","has_website":false,"has_booking":false,"has_analytics":false,"has_facebook_pixel":false,"has_ssl":false,"is_mobile_friendly":false,"gaps":["sem_website","sem_reservas","sem_whatsapp","sem_analytics","sem_facebook_pixel"],"status":"pendente"},{"id":53,"name":"Briza do Mar","category":"restaurantes","nicho":"restaurantes","score":82,"lat":37.8970554,"lng":-25.8170663,"municipality":"Sao Miguel, Acores","phone":null,"email":null,"website":null,"whatsapp":null,"address":null,"has_website":false,"has_booking":false,"has_analytics":false,"has_facebook_pixel":false,"has_ssl":false,"is_mobile_friendly":false,"gaps":["sem_website","sem_reservas","sem_whatsapp","sem_analytics","sem_facebook_pixel"],"status":"pendente"},{"id":143,"name":"Bumi","category":"restaurantes","nicho":"restaurantes","score":82,"lat":37.7391379,"lng":-25.6725567,"municipality":"Sao Miguel, Acores","phone":null,"email":null,"website":null,"whatsapp":null,"address":null,"has_website":false,"has_booking":false,"has_analytics":false,"has_facebook_pixel":false,"has_ssl":false,"is_mobile_friendly":false,"gaps":["sem_website","sem_reservas","sem_whatsapp","sem_analytics","sem_facebook_pixel"],"status":"pendente"},{"id":404,"name":"C C Lounge & Bar","category":"restaurantes","nicho":"bares","score":82,"lat":37.7438635,"lng":-25.6673242,"municipality":"Sao Miguel, Acores","phone":null,"email":null,"website":null,"whatsapp":null,"address":null,"has_website":false,"has_booking":false,"has_analytics":false,"has_facebook_pixel":false,"has_ssl":false,"is_mobile_friendly":false,"gaps":["sem_website","sem_reservas","sem_whatsapp","sem_analytics","sem_facebook_pixel"],"status":"pendente"},{"id":374,"name":"Cafe Cervejaria Moniz","category":"restaurantes","nicho":"cafes","score":82,"lat":37.847773,"lng":-25.8393812,"municipality":"Sao Miguel, Acores","phone":null,"email":null,"website":null,"whatsapp":null,"address":null,"has_website":false,"has_booking":false,"has_analytics":false,"has_facebook_pixel":false,"has_ssl":false,"is_mobile_friendly":false,"gaps":["sem_website","sem_reservas","sem_whatsapp","sem_analytics","sem_facebook_pixel"],"status":"pendente"},{"id":1069,"name":"Cafe Lima","category":"restaurantes","nicho":"cafes","score":82,"lat":38.7523281,"lng":-27.0742519,"municipality":"Terceira, Acores","phone":"+351 295 512 255","email":null,"website":null,"whatsapp":null,"address":null,"has_website":false,"has_booking":false,"has_analytics":false,"has_facebook_pixel":false,"has_ssl":false,"is_mobile_friendly":false,"gaps":["sem_website","sem_reservas","sem_whatsapp","sem_analytics","sem_facebook_pixel"],"status":"pendente"},{"id":1045,"name":"Cafetaria de Santo António","category":"restaurantes","nicho":"cafes","score":82,"lat":38.683496,"lng":-27.2302499,"municipality":"Terceira, Acores","phone":null,"email":null,"website":null,"whatsapp":null,"address":null,"has_website":false,"has_booking":false,"has_analytics":false,"has_facebook_pixel":false,"has_ssl":false,"is_mobile_friendly":false,"gaps":["sem_website","sem_reservas","sem_whatsapp","sem_analytics","sem_facebook_pixel"],"status":"pendente"},{"id":1340,"name":"Café \"O Ilhéu\"","category":"restaurantes","nicho":"cafes","score":82,"lat":39.0510038,"lng":-27.9713503,"municipality":"Graciosa, Acores","phone":null,"email":null,"website":null,"whatsapp":null,"address":"Rua Fontes Pereira de Melo, Praia (São Mateus)","has_website":false,"has_booking":false,"has_analytics":false,"has_facebook_pixel":false,"has_ssl":false,"is_mobile_friendly":false,"gaps":["sem_website","sem_reservas","sem_whatsapp","sem_analytics","sem_facebook_pixel"],"status":"pendente"},{"id":294,"name":"Café Adelino","category":"restaurantes","nicho":"cafes","score":82,"lat":37.7355546,"lng":-25.2981029,"municipality":"Sao Miguel, Acores","phone":null,"email":null,"website":null,"whatsapp":null,"address":null,"has_website":false,"has_booking":false,"has_analytics":false,"has_facebook_pixel":false,"has_ssl":false,"is_mobile_friendly":false,"gaps":["sem_website","sem_reservas","sem_whatsapp","sem_analytics","sem_facebook_pixel"],"status":"pendente"},{"id":1167,"name":"Café Atalaia","category":"restaurantes","nicho":"cafes","score":82,"lat":38.5333895,"lng":-28.6822984,"municipality":"Faial, Acores","phone":null,"email":null,"website":null,"whatsapp":null,"address":null,"has_website":false,"has_booking":false,"has_analytics":false,"has_facebook_pixel":false,"has_ssl":false,"is_mobile_friendly":false,"gaps":["sem_website","sem_reservas","sem_whatsapp","sem_analytics","sem_facebook_pixel"],"status":"pendente"},{"id":1165,"name":"Café Avenida","category":"restaurantes","nicho":"cafes","score":82,"lat":38.5412913,"lng":-28.622002,"municipality":"Faial, Acores","phone":null,"email":null,"website":null,"whatsapp":null,"address":null,"has_website":false,"has_booking":false,"has_analytics":false,"has_facebook_pixel":false,"has_ssl":false,"is_mobile_friendly":false,"gaps":["sem_website","sem_reservas","sem_whatsapp","sem_analytics","sem_facebook_pixel"],"status":"pendente"},{"id":311,"name":"Café Brandão","category":"restaurantes","nicho":"cafes","score":82,"lat":37.8490998,"lng":-25.1971244,"municipality":"Sao Miguel, Acores","phone":"+351 917304586","email":null,"website":null,"whatsapp":null,"address":"Rua Padre Dinis da Luz 23B, São Pedro de Nordestinho, 9630-247","has_website":false,"has_booking":false,"has_analytics":false,"has_facebook_pixel":false,"has_ssl":false,"is_mobile_friendly":false,"gaps":["sem_website","sem_reservas","sem_whatsapp","sem_analytics","sem_facebook_pixel"],"status":"pendente"},{"id":63,"name":"Café Canto do Cais","category":"restaurantes","nicho":"restaurantes","score":82,"lat":37.8413103,"lng":-25.6915125,"municipality":"Sao Miguel, Acores","phone":"+351 914 785 292","email":null,"website":null,"whatsapp":null,"address":"Rua de S. Pedro 1, Capelas","has_website":false,"has_booking":false,"has_analytics":false,"has_facebook_pixel":false,"has_ssl":false,"is_mobile_friendly":false,"gaps":["sem_website","sem_reservas","sem_whatsapp","sem_analytics","sem_facebook_pixel"],"status":"pendente"},{"id":1025,"name":"Café Capão","category":"restaurantes","nicho":"cafes","score":82,"lat":38.7713984,"lng":-27.1757614,"municipality":"Terceira, Acores","phone":null,"email":null,"website":null,"whatsapp":null,"address":null,"has_website":false,"has_booking":false,"has_analytics":false,"has_facebook_pixel":false,"has_ssl":false,"is_mobile_friendly":false,"gaps":["sem_website","sem_reservas","sem_whatsapp","sem_analytics","sem_facebook_pixel"],"status":"pendente"},{"id":442,"name":"Café Cervejaria Tropical","category":"restaurantes","nicho":"bares","score":82,"lat":37.7157165,"lng":-25.4336198,"municipality":"Sao Miguel, Acores","phone":null,"email":null,"website":null,"whatsapp":null,"address":null,"has_website":false,"has_booking":false,"has_analytics":false,"has_facebook_pixel":false,"has_ssl":false,"is_mobile_friendly":false,"gaps":["sem_website","sem_reservas","sem_whatsapp","sem_analytics","sem_facebook_pixel"],"status":"pendente"},{"id":1310,"name":"Café Esperança","category":"restaurantes","nicho":"cafes","score":82,"lat":38.6700784,"lng":-28.0610234,"municipality":"Sao Jorge, Acores","phone":null,"email":null,"website":null,"whatsapp":null,"address":null,"has_website":false,"has_booking":false,"has_analytics":false,"has_facebook_pixel":false,"has_ssl":false,"is_mobile_friendly":false,"gaps":["sem_website","sem_reservas","sem_whatsapp","sem_analytics","sem_facebook_pixel"],"status":"pendente"},{"id":384,"name":"Café Espirito Santo","category":"restaurantes","nicho":"cafes","score":82,"lat":37.7471133,"lng":-25.6680753,"municipality":"Sao Miguel, Acores","phone":null,"email":null,"website":null,"whatsapp":null,"address":null,"has_website":false,"has_booking":false,"has_analytics":false,"has_facebook_pixel":false,"has_ssl":false,"is_mobile_friendly":false,"gaps":["sem_website","sem_reservas","sem_whatsapp","sem_analytics","sem_facebook_pixel"],"status":"pendente"},{"id":1042,"name":"Café Ficher","category":"restaurantes","nicho":"cafes","score":82,"lat":38.7914924,"lng":-27.2986476,"municipality":"Terceira, Acores","phone":null,"email":null,"website":null,"whatsapp":null,"address":"Lugar Igreja 2A, Altares","has_website":false,"has_booking":false,"has_analytics":false,"has_facebook_pixel":false,"has_ssl":false,"is_mobile_friendly":false,"gaps":["sem_website","sem_reservas","sem_whatsapp","sem_analytics","sem_facebook_pixel"],"status":"pendente"},{"id":1261,"name":"Café Filarmónica","category":"restaurantes","nicho":"cafes","score":82,"lat":38.5245874,"lng":-28.3200613,"municipality":"Pico, Acores","phone":null,"email":null,"website":null,"whatsapp":null,"address":null,"has_website":false,"has_booking":false,"has_analytics":false,"has_facebook_pixel":false,"has_ssl":false,"is_mobile_friendly":false,"gaps":["sem_website","sem_reservas","sem_whatsapp","sem_analytics","sem_facebook_pixel"],"status":"pendente"},{"id":887,"name":"Café Frias","category":"servicos","nicho":"supermercados","score":82,"lat":37.8520794,"lng":-25.3151974,"municipality":"Sao Miguel, Acores","phone":null,"email":null,"website":null,"whatsapp":null,"address":null,"has_website":false,"has_booking":false,"has_analytics":false,"has_facebook_pixel":false,"has_ssl":false,"is_mobile_friendly":false,"gaps":["sem_website","sem_reservas","sem_whatsapp","sem_analytics","sem_facebook_pixel"],"status":"pendente"},{"id":324,"name":"Café Madruga","category":"restaurantes","nicho":"cafes","score":82,"lat":37.7414347,"lng":-25.6800628,"municipality":"Sao Miguel, Acores","phone":null,"email":null,"website":null,"whatsapp":null,"address":null,"has_website":false,"has_booking":false,"has_analytics":false,"has_facebook_pixel":false,"has_ssl":false,"is_mobile_friendly":false,"gaps":["sem_website","sem_reservas","sem_whatsapp","sem_analytics","sem_facebook_pixel"],"status":"pendente"},{"id":1184,"name":"Café Medeiros","category":"restaurantes","nicho":"cafes","score":82,"lat":38.5633875,"lng":-28.6313952,"municipality":"Faial, Acores","phone":null,"email":null,"website":null,"whatsapp":null,"address":null,"has_website":false,"has_booking":false,"has_analytics":false,"has_facebook_pixel":false,"has_ssl":false,"is_mobile_friendly":false,"gaps":["sem_website","sem_reservas","sem_whatsapp","sem_analytics","sem_facebook_pixel"],"status":"pendente"},{"id":314,"name":"Café Mendonça","category":"restaurantes","nicho":"cafes","score":82,"lat":37.8404634,"lng":-25.1575737,"municipality":"Sao Miguel, Acores","phone":"+351 296 486343","email":null,"website":null,"whatsapp":null,"address":"Rua da Courela 6, Lomba da Fazenda, 9630-087","has_website":false,"has_booking":false,"has_analytics":false,"has_facebook_pixel":false,"has_ssl":false,"is_mobile_friendly":false,"gaps":["sem_website","sem_reservas","sem_whatsapp","sem_analytics","sem_facebook_pixel"],"status":"pendente"},{"id":1177,"name":"Café Montrond","category":"restaurantes","nicho":"cafes","score":82,"lat":38.5247427,"lng":-28.6348779,"municipality":"Faial, Acores","phone":"+351 292 292 236","email":null,"website":null,"whatsapp":null,"address":"Pátio do Pasteleiro 5, Horta (Angústias), 9900-070","has_website":false,"has_booking":false,"has_analytics":false,"has_facebook_pixel":false,"has_ssl":false,"is_mobile_friendly":false,"gaps":["sem_website","sem_reservas","sem_whatsapp","sem_analytics","sem_facebook_pixel"],"status":"pendente"},{"id":1178,"name":"Café Nazaré","category":"restaurantes","nicho":"cafes","score":82,"lat":38.524889,"lng":-28.6343497,"municipality":"Faial, Acores","phone":null,"email":null,"website":null,"whatsapp":null,"address":"Rua do Castelo 81, Horta (Angústias), 9900-069","has_website":false,"has_booking":false,"has_analytics":false,"has_facebook_pixel":false,"has_ssl":false,"is_mobile_friendly":false,"gaps":["sem_website","sem_reservas","sem_whatsapp","sem_analytics","sem_facebook_pixel"],"status":"pendente"},{"id":1317,"name":"Café Nunes","category":"restaurantes","nicho":"cafes","score":82,"lat":38.5840381,"lng":-27.9320186,"municipality":"Sao Jorge, Acores","phone":null,"email":null,"website":null,"whatsapp":null,"address":null,"has_website":false,"has_booking":false,"has_analytics":false,"has_facebook_pixel":false,"has_ssl":false,"is_mobile_friendly":false,"gaps":["sem_website","sem_reservas","sem_whatsapp","sem_analytics","sem_facebook_pixel"],"status":"pendente"},{"id":318,"name":"Café O Anzol","category":"restaurantes","nicho":"cafes","score":82,"lat":37.7426533,"lng":-25.5758889,"municipality":"Sao Miguel, Acores","phone":null,"email":null,"website":null,"whatsapp":null,"address":null,"has_website":false,"has_booking":false,"has_analytics":false,"has_facebook_pixel":false,"has_ssl":false,"is_mobile_friendly":false,"gaps":["sem_website","sem_reservas","sem_whatsapp","sem_analytics","sem_facebook_pixel"],"status":"pendente"},{"id":306,"name":"Café O Priolo","category":"restaurantes","nicho":"cafes","score":82,"lat":37.8474902,"lng":-25.300229,"municipality":"Sao Miguel, Acores","phone":"+351 296 462100","email":null,"website":null,"whatsapp":null,"address":"Rua da Direita 13, Salga, 9630-282","has_website":false,"has_booking":false,"has_analytics":false,"has_facebook_pixel":false,"has_ssl":false,"is_mobile_friendly":false,"gaps":["sem_website","sem_reservas","sem_whatsapp","sem_analytics","sem_facebook_pixel"],"status":"pendente"},{"id":1171,"name":"Café O Vulcão","category":"restaurantes","nicho":"cafes","score":82,"lat":38.5831641,"lng":-28.7892102,"municipality":"Faial, Acores","phone":null,"email":null,"website":null,"whatsapp":null,"address":null,"has_website":false,"has_booking":false,"has_analytics":false,"has_facebook_pixel":false,"has_ssl":false,"is_mobile_friendly":false,"gaps":["sem_website","sem_reservas","sem_whatsapp","sem_analytics","sem_facebook_pixel"],"status":"pendente"},{"id":328,"name":"Café Pacheco","category":"restaurantes","nicho":"cafes","score":82,"lat":37.8134237,"lng":-25.5343263,"municipality":"Sao Miguel, Acores","phone":null,"email":null,"website":null,"whatsapp":null,"address":null,"has_website":false,"has_booking":false,"has_analytics":false,"has_facebook_pixel":false,"has_ssl":false,"is_mobile_friendly":false,"gaps":["sem_website","sem_reservas","sem_whatsapp","sem_analytics","sem_facebook_pixel"],"status":"pendente"},{"id":1175,"name":"Café Paraki","category":"restaurantes","nicho":"cafes","score":82,"lat":38.5744135,"lng":-28.6182918,"municipality":"Faial, Acores","phone":"+351 292 949 308","email":null,"website":null,"whatsapp":null,"address":"Estrada Regional 1-1 17, Pedro Miguel, 9900-429","has_website":false,"has_booking":false,"has_analytics":false,"has_facebook_pixel":false,"has_ssl":false,"is_mobile_friendly":false,"gaps":["sem_website","sem_reservas","sem_whatsapp","sem_analytics","sem_facebook_pixel"],"status":"pendente"},{"id":396,"name":"Café Pires","category":"restaurantes","nicho":"cafes","score":82,"lat":37.7447984,"lng":-25.5838111,"municipality":"Sao Miguel, Acores","phone":null,"email":null,"website":null,"whatsapp":null,"address":null,"has_website":false,"has_booking":false,"has_analytics":false,"has_facebook_pixel":false,"has_ssl":false,"is_mobile_friendly":false,"gaps":["sem_website","sem_reservas","sem_whatsapp","sem_analytics","sem_facebook_pixel"],"status":"pendente"},{"id":1164,"name":"Café Porto Pim","category":"restaurantes","nicho":"cafes","score":82,"lat":38.5263722,"lng":-28.6276017,"municipality":"Faial, Acores","phone":"+351 292292979","email":null,"website":null,"whatsapp":null,"address":"Rua da Areinha Velha 5A, Horta (Angústias), 9900-011","has_website":false,"has_booking":false,"has_analytics":false,"has_facebook_pixel":false,"has_ssl":false,"is_mobile_friendly":false,"gaps":["sem_website","sem_reservas","sem_whatsapp","sem_analytics","sem_facebook_pixel"],"status":"pendente"},{"id":276,"name":"Café Puro","category":"restaurantes","nicho":"cafes","score":82,"lat":37.743938,"lng":-25.6516065,"municipality":"Sao Miguel, Acores","phone":null,"email":null,"website":null,"whatsapp":null,"address":null,"has_website":false,"has_booking":false,"has_analytics":false,"has_facebook_pixel":false,"has_ssl":false,"is_mobile_friendly":false,"gaps":["sem_website","sem_reservas","sem_whatsapp","sem_analytics","sem_facebook_pixel"],"status":"pendente"},{"id":54,"name":"Café Restaurante Esplanada","category":"restaurantes","nicho":"restaurantes","score":82,"lat":37.8326535,"lng":-25.146699,"municipality":"Sao Miguel, Acores","phone":"+351 296 488286","email":null,"website":null,"whatsapp":null,"address":"Rua Jorge Maria Reis Machado 15, Nordeste, 9630-162","has_website":false,"has_booking":false,"has_analytics":false,"has_facebook_pixel":false,"has_ssl":false,"is_mobile_friendly":false,"gaps":["sem_website","sem_reservas","sem_whatsapp","sem_analytics","sem_facebook_pixel"],"status":"pendente"},{"id":1170,"name":"Café Rosa","category":"restaurantes","nicho":"cafes","score":82,"lat":38.6286852,"lng":-28.6757232,"municipality":"Faial, Acores","phone":null,"email":null,"website":null,"whatsapp":null,"address":null,"has_website":false,"has_booking":false,"has_analytics":false,"has_facebook_pixel":false,"has_ssl":false,"is_mobile_friendly":false,"gaps":["sem_website","sem_reservas","sem_whatsapp","sem_analytics","sem_facebook_pixel"],"status":"pendente"},{"id":1267,"name":"Café Rotunda","category":"restaurantes","nicho":"cafes","score":82,"lat":38.4025272,"lng":-28.0799542,"municipality":"Pico, Acores","phone":null,"email":null,"website":null,"whatsapp":null,"address":null,"has_website":false,"has_booking":false,"has_analytics":false,"has_facebook_pixel":false,"has_ssl":false,"is_mobile_friendly":false,"gaps":["sem_website","sem_reservas","sem_whatsapp","sem_analytics","sem_facebook_pixel"],"status":"pendente"},{"id":1263,"name":"Café Serpa","category":"restaurantes","nicho":"cafes","score":82,"lat":38.5414331,"lng":-28.4683996,"municipality":"Pico, Acores","phone":null,"email":null,"website":null,"whatsapp":null,"address":null,"has_website":false,"has_booking":false,"has_analytics":false,"has_facebook_pixel":false,"has_ssl":false,"is_mobile_friendly":false,"gaps":["sem_website","sem_reservas","sem_whatsapp","sem_analytics","sem_facebook_pixel"],"status":"pendente"},{"id":1182,"name":"Café Silva","category":"restaurantes","nicho":"cafes","score":82,"lat":38.5294789,"lng":-28.626991,"municipality":"Faial, Acores","phone":"+351 292391492","email":null,"website":null,"whatsapp":null,"address":"Rua Vasco da Gama 6, Horta (Angústias), 9900-017","has_website":false,"has_booking":false,"has_analytics":false,"has_facebook_pixel":false,"has_ssl":false,"is_mobile_friendly":false,"gaps":["sem_website","sem_reservas","sem_whatsapp","sem_analytics","sem_facebook_pixel"],"status":"pendente"},{"id":263,"name":"Café Sonho do Norte","category":"restaurantes","nicho":"cafes","score":82,"lat":37.8483211,"lng":-25.2331885,"municipality":"Sao Miguel, Acores","phone":"+351 296 452132","email":null,"website":null,"whatsapp":null,"address":"Rua Nova 3, Algarvia, 9630-229","has_website":false,"has_booking":false,"has_analytics":false,"has_facebook_pixel":false,"has_ssl":false,"is_mobile_friendly":false,"gaps":["sem_website","sem_reservas","sem_whatsapp","sem_analytics","sem_facebook_pixel"],"status":"pendente"},{"id":1053,"name":"Café Sotran","category":"restaurantes","nicho":"cafes","score":82,"lat":38.6555185,"lng":-27.1911206,"municipality":"Terceira, Acores","phone":null,"email":null,"website":null,"whatsapp":null,"address":null,"has_website":false,"has_booking":false,"has_analytics":false,"has_facebook_pixel":false,"has_ssl":false,"is_mobile_friendly":false,"gaps":["sem_website","sem_reservas","sem_whatsapp","sem_analytics","sem_facebook_pixel"],"status":"pendente"},{"id":1311,"name":"Café São João","category":"restaurantes","nicho":"cafes","score":82,"lat":38.6808938,"lng":-28.2066495,"municipality":"Sao Jorge, Acores","phone":null,"email":null,"website":null,"whatsapp":null,"address":null,"has_website":false,"has_booking":false,"has_analytics":false,"has_facebook_pixel":false,"has_ssl":false,"is_mobile_friendly":false,"gaps":["sem_website","sem_reservas","sem_whatsapp","sem_analytics","sem_facebook_pixel"],"status":"pendente"},{"id":309,"name":"Café Tavares","category":"restaurantes","nicho":"cafes","score":82,"lat":37.8529331,"lng":-25.2848477,"municipality":"Sao Miguel, Acores","phone":"+351 296 452 311","email":null,"website":null,"whatsapp":null,"address":"Rua Direita 80, Achadinha, 9630-045","has_website":false,"has_booking":false,"has_analytics":false,"has_facebook_pixel":false,"has_ssl":false,"is_mobile_friendly":false,"gaps":["sem_website","sem_reservas","sem_whatsapp","sem_analytics","sem_facebook_pixel"],"status":"pendente"},{"id":1163,"name":"Café Tosibel","category":"restaurantes","nicho":"cafes","score":82,"lat":38.5400173,"lng":-28.6243882,"municipality":"Faial, Acores","phone":null,"email":null,"website":null,"whatsapp":null,"address":"Rua Serpa Pinto 51, Horta (Matriz), 9900-095","has_website":false,"has_booking":false,"has_analytics":false,"has_facebook_pixel":false,"has_ssl":false,"is_mobile_friendly":false,"gaps":["sem_website","sem_reservas","sem_whatsapp","sem_analytics","sem_facebook_pixel"],"status":"pendente"},{"id":1174,"name":"Café Vista do Porto","category":"restaurantes","nicho":"cafes","score":82,"lat":38.5240859,"lng":-28.6719306,"municipality":"Faial, Acores","phone":null,"email":null,"website":null,"whatsapp":null,"address":"Canada do Porto 12, Feteira, 9900-361","has_website":false,"has_booking":false,"has_analytics":false,"has_facebook_pixel":false,"has_ssl":false,"is_mobile_friendly":false,"gaps":["sem_website","sem_reservas","sem_whatsapp","sem_analytics","sem_facebook_pixel"],"status":"pendente"},{"id":1168,"name":"Café Volga","category":"restaurantes","nicho":"cafes","score":82,"lat":38.5327986,"lng":-28.6267128,"municipality":"Faial, Acores","phone":"+351292292347","email":null,"website":null,"whatsapp":null,"address":"Praça Infante Dom Henrique 16, Horta (Angústias), 9900-016","has_website":false,"has_booking":false,"has_analytics":false,"has_facebook_pixel":false,"has_ssl":false,"is_mobile_friendly":false,"gaps":["sem_website","sem_reservas","sem_whatsapp","sem_analytics","sem_facebook_pixel"],"status":"pendente"},{"id":1179,"name":"Café Volta","category":"restaurantes","nicho":"cafes","score":82,"lat":38.5497245,"lng":-28.6296717,"municipality":"Faial, Acores","phone":null,"email":null,"website":null,"whatsapp":null,"address":null,"has_website":false,"has_booking":false,"has_analytics":false,"has_facebook_pixel":false,"has_ssl":false,"is_mobile_friendly":false,"gaps":["sem_website","sem_reservas","sem_whatsapp","sem_analytics","sem_facebook_pixel"],"status":"pendente"},{"id":296,"name":"Café da Bola","category":"restaurantes","nicho":"cafes","score":82,"lat":37.8600624,"lng":-25.7036499,"municipality":"Sao Miguel, Acores","phone":null,"email":null,"website":null,"whatsapp":null,"address":null,"has_website":false,"has_booking":false,"has_analytics":false,"has_facebook_pixel":false,"has_ssl":false,"is_mobile_friendly":false,"gaps":["sem_website","sem_reservas","sem_whatsapp","sem_analytics","sem_facebook_pixel"],"status":"pendente"},{"id":295,"name":"Café da Bola 2","category":"restaurantes","nicho":"cafes","score":82,"lat":37.8554916,"lng":-25.7028217,"municipality":"Sao Miguel, Acores","phone":null,"email":null,"website":null,"whatsapp":null,"address":null,"has_website":false,"has_booking":false,"has_analytics":false,"has_facebook_pixel":false,"has_ssl":false,"is_mobile_friendly":false,"gaps":["sem_website","sem_reservas","sem_whatsapp","sem_analytics","sem_facebook_pixel"],"status":"pendente"},{"id":302,"name":"Café da Bola 2","category":"restaurantes","nicho":"cafes","score":82,"lat":37.8603979,"lng":-25.7036397,"municipality":"Sao Miguel, Acores","phone":null,"email":null,"website":null,"whatsapp":null,"address":null,"has_website":false,"has_booking":false,"has_analytics":false,"has_facebook_pixel":false,"has_ssl":false,"is_mobile_friendly":false,"gaps":["sem_website","sem_reservas","sem_whatsapp","sem_analytics","sem_facebook_pixel"],"status":"pendente"},{"id":380,"name":"Café da Linda","category":"restaurantes","nicho":"cafes","score":82,"lat":37.752134,"lng":-25.7200744,"municipality":"Sao Miguel, Acores","phone":null,"email":null,"website":null,"whatsapp":null,"address":null,"has_website":false,"has_booking":false,"has_analytics":false,"has_facebook_pixel":false,"has_ssl":false,"is_mobile_friendly":false,"gaps":["sem_website","sem_reservas","sem_whatsapp","sem_analytics","sem_facebook_pixel"],"status":"pendente"},{"id":291,"name":"Café da Saúde","category":"restaurantes","nicho":"cafes","score":82,"lat":37.7605199,"lng":-25.7037744,"municipality":"Sao Miguel, Acores","phone":null,"email":null,"website":null,"whatsapp":null,"address":null,"has_website":false,"has_booking":false,"has_analytics":false,"has_facebook_pixel":false,"has_ssl":false,"is_mobile_friendly":false,"gaps":["sem_website","sem_reservas","sem_whatsapp","sem_analytics","sem_facebook_pixel"],"status":"pendente"},{"id":284,"name":"Café do Centro","category":"restaurantes","nicho":"cafes","score":82,"lat":37.8988054,"lng":-25.7551252,"municipality":"Sao Miguel, Acores","phone":null,"email":null,"website":null,"whatsapp":null,"address":null,"has_website":false,"has_booking":false,"has_analytics":false,"has_facebook_pixel":false,"has_ssl":false,"is_mobile_friendly":false,"gaps":["sem_website","sem_reservas","sem_whatsapp","sem_analytics","sem_facebook_pixel"],"status":"pendente"},{"id":345,"name":"Café do Desporto","category":"restaurantes","nicho":"cafes","score":82,"lat":37.7189276,"lng":-25.4349993,"municipality":"Sao Miguel, Acores","phone":null,"email":null,"website":null,"whatsapp":null,"address":null,"has_website":false,"has_booking":false,"has_analytics":false,"has_facebook_pixel":false,"has_ssl":false,"is_mobile_friendly":false,"gaps":["sem_website","sem_reservas","sem_whatsapp","sem_analytics","sem_facebook_pixel"],"status":"pendente"},{"id":1065,"name":"Café do Imigrante","category":"restaurantes","nicho":"cafes","score":82,"lat":38.7900069,"lng":-27.2238146,"municipality":"Terceira, Acores","phone":null,"email":null,"website":null,"whatsapp":null,"address":null,"has_website":false,"has_booking":false,"has_analytics":false,"has_facebook_pixel":false,"has_ssl":false,"is_mobile_friendly":false,"gaps":["sem_website","sem_reservas","sem_whatsapp","sem_analytics","sem_facebook_pixel"],"status":"pendente"},{"id":1028,"name":"Café do Miguel","category":"restaurantes","nicho":"cafes","score":82,"lat":38.6627147,"lng":-27.2468444,"municipality":"Terceira, Acores","phone":null,"email":null,"website":null,"whatsapp":null,"address":null,"has_website":false,"has_booking":false,"has_analytics":false,"has_facebook_pixel":false,"has_ssl":false,"is_mobile_friendly":false,"gaps":["sem_website","sem_reservas","sem_whatsapp","sem_analytics","sem_facebook_pixel"],"status":"pendente"},{"id":1181,"name":"Café do Nini","category":"restaurantes","nicho":"cafes","score":82,"lat":38.5808881,"lng":-28.6311912,"municipality":"Faial, Acores","phone":null,"email":null,"website":null,"whatsapp":null,"address":"Encruzilhadas 91, Pedro Miguel, 9900-437","has_website":false,"has_booking":false,"has_analytics":false,"has_facebook_pixel":false,"has_ssl":false,"is_mobile_friendly":false,"gaps":["sem_website","sem_reservas","sem_whatsapp","sem_analytics","sem_facebook_pixel"],"status":"pendente"},{"id":1058,"name":"Café do Refugo","category":"restaurantes","nicho":"cafes","score":82,"lat":38.6469522,"lng":-27.1120979,"municipality":"Terceira, Acores","phone":null,"email":null,"website":null,"whatsapp":null,"address":null,"has_website":false,"has_booking":false,"has_analytics":false,"has_facebook_pixel":false,"has_ssl":false,"is_mobile_friendly":false,"gaps":["sem_website","sem_reservas","sem_whatsapp","sem_analytics","sem_facebook_pixel"],"status":"pendente"},{"id":1169,"name":"Café e Casa de Chá","category":"restaurantes","nicho":"cafes","score":82,"lat":38.5506127,"lng":-28.6395222,"municipality":"Faial, Acores","phone":null,"email":null,"website":null,"whatsapp":null,"address":null,"has_website":false,"has_booking":false,"has_analytics":false,"has_facebook_pixel":false,"has_ssl":false,"is_mobile_friendly":false,"gaps":["sem_website","sem_reservas","sem_whatsapp","sem_analytics","sem_facebook_pixel"],"status":"pendente"},{"id":1318,"name":"Café e Mercearia \"O Duartino\"","category":"restaurantes","nicho":"cafes","score":82,"lat":38.7182584,"lng":-28.2509651,"municipality":"Sao Jorge, Acores","phone":null,"email":null,"website":null,"whatsapp":null,"address":"Caminho de Rosais","has_website":false,"has_booking":false,"has_analytics":false,"has_facebook_pixel":false,"has_ssl":false,"is_mobile_friendly":false,"gaps":["sem_website","sem_reservas","sem_whatsapp","sem_analytics","sem_facebook_pixel"],"status":"pendente"},{"id":376,"name":"Café esperança de Nelson Oliveira","category":"restaurantes","nicho":"cafes","score":82,"lat":37.826446,"lng":-25.6414821,"municipality":"Sao Miguel, Acores","phone":null,"email":null,"website":null,"whatsapp":null,"address":null,"has_website":false,"has_booking":false,"has_analytics":false,"has_facebook_pixel":false,"has_ssl":false,"is_mobile_friendly":false,"gaps":["sem_website","sem_reservas","sem_whatsapp","sem_analytics","sem_facebook_pixel"],"status":"pendente"},{"id":261,"name":"Café rocha","category":"restaurantes","nicho":"cafes","score":82,"lat":37.7436018,"lng":-25.6819068,"municipality":"Sao Miguel, Acores","phone":null,"email":null,"website":null,"whatsapp":null,"address":null,"has_website":false,"has_booking":false,"has_analytics":false,"has_facebook_pixel":false,"has_ssl":false,"is_mobile_friendly":false,"gaps":["sem_website","sem_reservas","sem_whatsapp","sem_analytics","sem_facebook_pixel"],"status":"pendente"},{"id":1066,"name":"Café Âncora","category":"restaurantes","nicho":"cafes","score":82,"lat":38.6917121,"lng":-27.0830249,"municipality":"Terceira, Acores","phone":"+351 962413177","email":null,"website":null,"whatsapp":null,"address":"Fonte do Bastardo, 9760-119","has_website":false,"has_booking":false,"has_analytics":false,"has_facebook_pixel":false,"has_ssl":false,"is_mobile_friendly":false,"gaps":["sem_website","sem_reservas","sem_whatsapp","sem_analytics","sem_facebook_pixel"],"status":"pendente"},{"id":301,"name":"Café/Restaurante Debbie","category":"restaurantes","nicho":"cafes","score":82,"lat":37.8514074,"lng":-25.2666929,"municipality":"Sao Miguel, Acores","phone":"+351 296 452111","email":null,"website":null,"whatsapp":null,"address":"Rua Nova 84/86, Achada, 9630-014","has_website":false,"has_booking":false,"has_analytics":false,"has_facebook_pixel":false,"has_ssl":false,"is_mobile_friendly":false,"gaps":["sem_website","sem_reservas","sem_whatsapp","sem_analytics","sem_facebook_pixel"],"status":"pendente"},{"id":307,"name":"Café/Restaurante Madrugada","category":"restaurantes","nicho":"cafes","score":82,"lat":37.8465931,"lng":-25.3000305,"municipality":"Sao Miguel, Acores","phone":"+351 296 462274","email":null,"website":null,"whatsapp":null,"address":"Rua Direita 24, Salga, 9630-282","has_website":false,"has_booking":false,"has_analytics":false,"has_facebook_pixel":false,"has_ssl":false,"is_mobile_friendly":false,"gaps":["sem_website","sem_reservas","sem_whatsapp","sem_analytics","sem_facebook_pixel"],"status":"pendente"},{"id":88,"name":"Calçada do Cais","category":"restaurantes","nicho":"restaurantes","score":82,"lat":37.7402094,"lng":-25.66711,"municipality":"Sao Miguel, Acores","phone":"+351 924 187 406","email":null,"website":null,"whatsapp":null,"address":"Rua dos Mercadores 27, Ponta Delgada","has_website":false,"has_booking":false,"has_analytics":false,"has_facebook_pixel":false,"has_ssl":false,"is_mobile_friendly":false,"gaps":["sem_website","sem_reservas","sem_whatsapp","sem_analytics","sem_facebook_pixel"],"status":"pendente"},{"id":1300,"name":"Cantinho da Pizza","category":"restaurantes","nicho":"restaurantes","score":82,"lat":38.6059659,"lng":-28.0110612,"municipality":"Sao Jorge, Acores","phone":null,"email":null,"website":null,"whatsapp":null,"address":null,"has_website":false,"has_booking":false,"has_analytics":false,"has_facebook_pixel":false,"has_ssl":false,"is_mobile_friendly":false,"gaps":["sem_website","sem_reservas","sem_whatsapp","sem_analytics","sem_facebook_pixel"],"status":"pendente"},{"id":837,"name":"Canto Ribeira","category":"servicos","nicho":"supermercados","score":82,"lat":37.7508254,"lng":-25.2421747,"municipality":"Sao Miguel, Acores","phone":null,"email":null,"website":null,"whatsapp":null,"address":null,"has_website":false,"has_booking":false,"has_analytics":false,"has_facebook_pixel":false,"has_ssl":false,"is_mobile_friendly":false,"gaps":["sem_website","sem_reservas","sem_whatsapp","sem_analytics","sem_facebook_pixel"],"status":"pendente"},{"id":1147,"name":"Canto da Doca","category":"restaurantes","nicho":"restaurantes","score":82,"lat":38.5278357,"lng":-28.6264361,"municipality":"Faial, Acores","phone":"+351 292292444","email":null,"website":null,"whatsapp":null,"address":null,"has_website":false,"has_booking":false,"has_analytics":false,"has_facebook_pixel":false,"has_ssl":false,"is_mobile_friendly":false,"gaps":["sem_website","sem_reservas","sem_whatsapp","sem_analytics","sem_facebook_pixel"],"status":"pendente"},{"id":82,"name":"Canto da Pia","category":"restaurantes","nicho":"restaurantes","score":82,"lat":37.7513014,"lng":-25.7123156,"municipality":"Sao Miguel, Acores","phone":null,"email":null,"website":null,"whatsapp":null,"address":null,"has_website":false,"has_booking":false,"has_analytics":false,"has_facebook_pixel":false,"has_ssl":false,"is_mobile_friendly":false,"gaps":["sem_website","sem_reservas","sem_whatsapp","sem_analytics","sem_facebook_pixel"],"status":"pendente"},{"id":1111,"name":"Car repair","category":"servicos","nicho":"garagens","score":82,"lat":38.6722269,"lng":-27.278774,"municipality":"Terceira, Acores","phone":null,"email":null,"website":null,"whatsapp":null,"address":null,"has_website":false,"has_booking":false,"has_analytics":false,"has_facebook_pixel":false,"has_ssl":false,"is_mobile_friendly":false,"gaps":["sem_website","sem_reservas","sem_whatsapp","sem_analytics","sem_facebook_pixel"],"status":"pendente"},{"id":1112,"name":"Car repair","category":"servicos","nicho":"garagens","score":82,"lat":38.671678,"lng":-27.278999,"municipality":"Terceira, Acores","phone":null,"email":null,"website":null,"whatsapp":null,"address":null,"has_website":false,"has_booking":false,"has_analytics":false,"has_facebook_pixel":false,"has_ssl":false,"is_mobile_friendly":false,"gaps":["sem_website","sem_reservas","sem_whatsapp","sem_analytics","sem_facebook_pixel"],"status":"pendente"},{"id":612,"name":"Casa Botelho (AL)","category":"alojamento","nicho":"alojamento_local","score":82,"lat":37.8100189,"lng":-25.1468373,"municipality":"Sao Miguel, Acores","phone":"+351 919472244","email":null,"website":null,"whatsapp":null,"address":"Rua Caminho Fundo 16, Pedreira, 9630-172","has_website":false,"has_booking":false,"has_analytics":false,"has_facebook_pixel":false,"has_ssl":false,"is_mobile_friendly":false,"gaps":["sem_website","sem_reservas","sem_whatsapp","sem_analytics","sem_facebook_pixel"],"status":"pendente"},{"id":811,"name":"Casa Cheia","category":"servicos","nicho":"supermercados","score":82,"lat":37.7728347,"lng":-25.3162508,"municipality":"Sao Miguel, Acores","phone":null,"email":null,"website":null,"whatsapp":null,"address":null,"has_website":false,"has_booking":false,"has_analytics":false,"has_facebook_pixel":false,"has_ssl":false,"is_mobile_friendly":false,"gaps":["sem_website","sem_reservas","sem_whatsapp","sem_analytics","sem_facebook_pixel"],"status":"pendente"},{"id":819,"name":"Casa Cheia","category":"servicos","nicho":"supermercados","score":82,"lat":37.7586197,"lng":-25.6627722,"municipality":"Sao Miguel, Acores","phone":null,"email":null,"website":null,"whatsapp":null,"address":null,"has_website":false,"has_booking":false,"has_analytics":false,"has_facebook_pixel":false,"has_ssl":false,"is_mobile_friendly":false,"gaps":["sem_website","sem_reservas","sem_whatsapp","sem_analytics","sem_facebook_pixel"],"status":"pendente"},{"id":833,"name":"Casa Cheia","category":"servicos","nicho":"supermercados","score":82,"lat":37.744269,"lng":-25.6534112,"municipality":"Sao Miguel, Acores","phone":null,"email":null,"website":null,"whatsapp":null,"address":null,"has_website":false,"has_booking":false,"has_analytics":false,"has_facebook_pixel":false,"has_ssl":false,"is_mobile_friendly":false,"gaps":["sem_website","sem_reservas","sem_whatsapp","sem_analytics","sem_facebook_pixel"],"status":"pendente"},{"id":847,"name":"Casa Cheia","category":"servicos","nicho":"supermercados","score":82,"lat":37.7706701,"lng":-25.6925836,"municipality":"Sao Miguel, Acores","phone":null,"email":null,"website":null,"whatsapp":null,"address":null,"has_website":false,"has_booking":false,"has_analytics":false,"has_facebook_pixel":false,"has_ssl":false,"is_mobile_friendly":false,"gaps":["sem_website","sem_reservas","sem_whatsapp","sem_analytics","sem_facebook_pixel"],"status":"pendente"},{"id":867,"name":"Casa Cheia","category":"servicos","nicho":"supermercados","score":82,"lat":37.7244156,"lng":-25.441349,"municipality":"Sao Miguel, Acores","phone":null,"email":null,"website":null,"whatsapp":null,"address":null,"has_website":false,"has_booking":false,"has_analytics":false,"has_facebook_pixel":false,"has_ssl":false,"is_mobile_friendly":false,"gaps":["sem_website","sem_reservas","sem_whatsapp","sem_analytics","sem_facebook_pixel"],"status":"pendente"},{"id":880,"name":"Casa Cheia","category":"servicos","nicho":"supermercados","score":82,"lat":37.7493448,"lng":-25.6331728,"municipality":"Sao Miguel, Acores","phone":null,"email":null,"website":null,"whatsapp":null,"address":null,"has_website":false,"has_booking":false,"has_analytics":false,"has_facebook_pixel":false,"has_ssl":false,"is_mobile_friendly":false,"gaps":["sem_website","sem_reservas","sem_whatsapp","sem_analytics","sem_facebook_pixel"],"status":"pendente"},{"id":889,"name":"Casa Cheia","category":"servicos","nicho":"supermercados","score":82,"lat":37.7401687,"lng":-25.6672271,"municipality":"Sao Miguel, Acores","phone":null,"email":null,"website":null,"whatsapp":null,"address":null,"has_website":false,"has_booking":false,"has_analytics":false,"has_facebook_pixel":false,"has_ssl":false,"is_mobile_friendly":false,"gaps":["sem_website","sem_reservas","sem_whatsapp","sem_analytics","sem_facebook_pixel"],"status":"pendente"},{"id":896,"name":"Casa Cheia","category":"servicos","nicho":"supermercados","score":82,"lat":37.8073928,"lng":-25.7989187,"municipality":"Sao Miguel, Acores","phone":null,"email":null,"website":null,"whatsapp":null,"address":null,"has_website":false,"has_booking":false,"has_analytics":false,"has_facebook_pixel":false,"has_ssl":false,"is_mobile_friendly":false,"gaps":["sem_website","sem_reservas","sem_whatsapp","sem_analytics","sem_facebook_pixel"],"status":"pendente"},{"id":897,"name":"Casa Cheia","category":"servicos","nicho":"supermercados","score":82,"lat":37.8122068,"lng":-25.5738986,"municipality":"Sao Miguel, Acores","phone":null,"email":null,"website":null,"whatsapp":null,"address":null,"has_website":false,"has_booking":false,"has_analytics":false,"has_facebook_pixel":false,"has_ssl":false,"is_mobile_friendly":false,"gaps":["sem_website","sem_reservas","sem_whatsapp","sem_analytics","sem_facebook_pixel"],"status":"pendente"},{"id":907,"name":"Casa Cheia","category":"servicos","nicho":"supermercados","score":82,"lat":37.8143708,"lng":-25.588754,"municipality":"Sao Miguel, Acores","phone":null,"email":null,"website":null,"whatsapp":null,"address":null,"has_website":false,"has_booking":false,"has_analytics":false,"has_facebook_pixel":false,"has_ssl":false,"is_mobile_friendly":false,"gaps":["sem_website","sem_reservas","sem_whatsapp","sem_analytics","sem_facebook_pixel"],"status":"pendente"},{"id":908,"name":"Casa Cheia","category":"servicos","nicho":"supermercados","score":82,"lat":37.740985,"lng":-25.6652967,"municipality":"Sao Miguel, Acores","phone":null,"email":null,"website":null,"whatsapp":null,"address":null,"has_website":false,"has_booking":false,"has_analytics":false,"has_facebook_pixel":false,"has_ssl":false,"is_mobile_friendly":false,"gaps":["sem_website","sem_reservas","sem_whatsapp","sem_analytics","sem_facebook_pixel"],"status":"pendente"},{"id":913,"name":"Casa Cheia","category":"servicos","nicho":"supermercados","score":82,"lat":37.7505336,"lng":-25.254051,"municipality":"Sao Miguel, Acores","phone":null,"email":null,"website":null,"whatsapp":null,"address":null,"has_website":false,"has_booking":false,"has_analytics":false,"has_facebook_pixel":false,"has_ssl":false,"is_mobile_friendly":false,"gaps":["sem_website","sem_reservas","sem_whatsapp","sem_analytics","sem_facebook_pixel"],"status":"pendente"},{"id":926,"name":"Casa Cheia","category":"servicos","nicho":"supermercados","score":82,"lat":37.7165769,"lng":-25.4335636,"municipality":"Sao Miguel, Acores","phone":null,"email":null,"website":null,"whatsapp":null,"address":"Vila Franca do Campo","has_website":false,"has_booking":false,"has_analytics":false,"has_facebook_pixel":false,"has_ssl":false,"is_mobile_friendly":false,"gaps":["sem_website","sem_reservas","sem_whatsapp","sem_analytics","sem_facebook_pixel"],"status":"pendente"},{"id":930,"name":"Casa Cheia","category":"servicos","nicho":"supermercados","score":82,"lat":37.7605198,"lng":-25.6986322,"municipality":"Sao Miguel, Acores","phone":null,"email":null,"website":null,"whatsapp":null,"address":"Rua da Carreira 109, Arrifes, 9500-371","has_website":false,"has_booking":false,"has_analytics":false,"has_facebook_pixel":false,"has_ssl":false,"is_mobile_friendly":false,"gaps":["sem_website","sem_reservas","sem_whatsapp","sem_analytics","sem_facebook_pixel"],"status":"pendente"},{"id":935,"name":"Casa Cheia","category":"servicos","nicho":"supermercados","score":82,"lat":37.744771,"lng":-25.5802943,"municipality":"Sao Miguel, Acores","phone":null,"email":null,"website":null,"whatsapp":null,"address":null,"has_website":false,"has_booking":false,"has_analytics":false,"has_facebook_pixel":false,"has_ssl":false,"is_mobile_friendly":false,"gaps":["sem_website","sem_reservas","sem_whatsapp","sem_analytics","sem_facebook_pixel"],"status":"pendente"},{"id":937,"name":"Casa Cheia","category":"servicos","nicho":"supermercados","score":82,"lat":37.8340429,"lng":-25.6923472,"municipality":"Sao Miguel, Acores","phone":null,"email":null,"website":null,"whatsapp":null,"address":null,"has_website":false,"has_booking":false,"has_analytics":false,"has_facebook_pixel":false,"has_ssl":false,"is_mobile_friendly":false,"gaps":["sem_website","sem_reservas","sem_whatsapp","sem_analytics","sem_facebook_pixel"],"status":"pendente"},{"id":843,"name":"Casa Cheia Maia","category":"servicos","nicho":"supermercados","score":82,"lat":37.8330998,"lng":-25.389563,"municipality":"Sao Miguel, Acores","phone":null,"email":null,"website":null,"whatsapp":null,"address":null,"has_website":false,"has_booking":false,"has_analytics":false,"has_facebook_pixel":false,"has_ssl":false,"is_mobile_friendly":false,"gaps":["sem_website","sem_reservas","sem_whatsapp","sem_analytics","sem_facebook_pixel"],"status":"pendente"},{"id":36,"name":"Casa Marisca","category":"restaurantes","nicho":"restaurantes","score":82,"lat":37.7424553,"lng":-25.6558576,"municipality":"Sao Miguel, Acores","phone":null,"email":null,"website":null,"whatsapp":null,"address":null,"has_website":false,"has_booking":false,"has_analytics":false,"has_facebook_pixel":false,"has_ssl":false,"is_mobile_friendly":false,"gaps":["sem_website","sem_reservas","sem_whatsapp","sem_analytics","sem_facebook_pixel"],"status":"pendente"},{"id":158,"name":"Casa Nostra Brunch & Tapas Bar","category":"restaurantes","nicho":"restaurantes","score":82,"lat":37.7406806,"lng":-25.6685355,"municipality":"Sao Miguel, Acores","phone":null,"email":null,"website":null,"whatsapp":null,"address":"Rua Hintze Ribeiro 29","has_website":false,"has_booking":false,"has_analytics":false,"has_facebook_pixel":false,"has_ssl":false,"is_mobile_friendly":false,"gaps":["sem_website","sem_reservas","sem_whatsapp","sem_analytics","sem_facebook_pixel"],"status":"pendente"},{"id":106,"name":"Casa Pasto Flor","category":"restaurantes","nicho":"restaurantes","score":82,"lat":37.8224836,"lng":-25.5195773,"municipality":"Sao Miguel, Acores","phone":null,"email":null,"website":null,"whatsapp":null,"address":null,"has_website":false,"has_booking":false,"has_analytics":false,"has_facebook_pixel":false,"has_ssl":false,"is_mobile_friendly":false,"gaps":["sem_website","sem_reservas","sem_whatsapp","sem_analytics","sem_facebook_pixel"],"status":"pendente"},{"id":629,"name":"Casa Rocha Mar (AL)","category":"alojamento","nicho":"alojamento_local","score":82,"lat":37.8509669,"lng":-25.1983136,"municipality":"Sao Miguel, Acores","phone":null,"email":null,"website":null,"whatsapp":null,"address":"Rua de São Pedro 13, São Pedro de Nordestinho, 9630-253","has_website":false,"has_booking":false,"has_analytics":false,"has_facebook_pixel":false,"has_ssl":false,"is_mobile_friendly":false,"gaps":["sem_website","sem_reservas","sem_whatsapp","sem_analytics","sem_facebook_pixel"],"status":"pendente"},{"id":639,"name":"Casa da Boa Vida (AL)","category":"alojamento","nicho":"alojamento_local","score":82,"lat":37.8525547,"lng":-25.2067073,"municipality":"Sao Miguel, Acores","phone":null,"email":null,"website":null,"whatsapp":null,"address":"Travessa da Vila Nova 2, Santo António de Nordestinho, 9630-233","has_website":false,"has_booking":false,"has_analytics":false,"has_facebook_pixel":false,"has_ssl":false,"is_mobile_friendly":false,"gaps":["sem_website","sem_reservas","sem_whatsapp","sem_analytics","sem_facebook_pixel"],"status":"pendente"},{"id":252,"name":"Casa das Sandes","category":"restaurantes","nicho":"cafes","score":82,"lat":37.7403729,"lng":-25.6646401,"municipality":"Sao Miguel, Acores","phone":null,"email":null,"website":null,"whatsapp":null,"address":null,"has_website":false,"has_booking":false,"has_analytics":false,"has_facebook_pixel":false,"has_ssl":false,"is_mobile_friendly":false,"gaps":["sem_website","sem_reservas","sem_whatsapp","sem_analytics","sem_facebook_pixel"],"status":"pendente"},{"id":240,"name":"Casa de Pasto José do Rego","category":"restaurantes","nicho":"restaurantes","score":82,"lat":37.7449748,"lng":-25.5915199,"municipality":"Sao Miguel, Acores","phone":"+351296916755","email":null,"website":null,"whatsapp":null,"address":"Rua Nossa Senhora das Necessidades (Atalhada) 30, Lagoa (São Miguel), 9560-418","has_website":false,"has_booking":false,"has_analytics":false,"has_facebook_pixel":false,"has_ssl":false,"is_mobile_friendly":false,"gaps":["sem_website","sem_reservas","sem_whatsapp","sem_analytics","sem_facebook_pixel"],"status":"pendente"},{"id":22,"name":"Casa de Pasto Marisca","category":"restaurantes","nicho":"restaurantes","score":82,"lat":37.7201458,"lng":-25.5071761,"municipality":"Sao Miguel, Acores","phone":null,"email":null,"website":null,"whatsapp":null,"address":null,"has_website":false,"has_booking":false,"has_analytics":false,"has_facebook_pixel":false,"has_ssl":false,"is_mobile_friendly":false,"gaps":["sem_website","sem_reservas","sem_whatsapp","sem_analytics","sem_facebook_pixel"],"status":"pendente"},{"id":68,"name":"Casa de Pasto O Amaral","category":"restaurantes","nicho":"restaurantes","score":82,"lat":37.8229404,"lng":-25.4318772,"municipality":"Sao Miguel, Acores","phone":"+351296 442 258","email":null,"website":null,"whatsapp":null,"address":"Rua do José do Canto 28, 9625-425","has_website":false,"has_booking":false,"has_analytics":false,"has_facebook_pixel":false,"has_ssl":false,"is_mobile_friendly":false,"gaps":["sem_website","sem_reservas","sem_whatsapp","sem_analytics","sem_facebook_pixel"],"status":"pendente"},{"id":27,"name":"Casa de Pasto O Avião","category":"restaurantes","nicho":"restaurantes","score":82,"lat":37.7401739,"lng":-25.671368,"municipality":"Sao Miguel, Acores","phone":null,"email":null,"website":null,"whatsapp":null,"address":"Rua Comandante Jaime de Sousa 14, 9500-047","has_website":false,"has_booking":false,"has_analytics":false,"has_facebook_pixel":false,"has_ssl":false,"is_mobile_friendly":false,"gaps":["sem_website","sem_reservas","sem_whatsapp","sem_analytics","sem_facebook_pixel"],"status":"pendente"},{"id":109,"name":"Casa de Pasto O Rabaça","category":"restaurantes","nicho":"restaurantes","score":82,"lat":37.7422879,"lng":-25.5770335,"municipality":"Sao Miguel, Acores","phone":null,"email":null,"website":null,"whatsapp":null,"address":null,"has_website":false,"has_booking":false,"has_analytics":false,"has_facebook_pixel":false,"has_ssl":false,"is_mobile_friendly":false,"gaps":["sem_website","sem_reservas","sem_whatsapp","sem_analytics","sem_facebook_pixel"],"status":"pendente"},{"id":613,"name":"Casa de Trás (AL)","category":"alojamento","nicho":"alojamento_local","score":82,"lat":37.8100854,"lng":-25.1469109,"municipality":"Sao Miguel, Acores","phone":"+351 919472244","email":null,"website":null,"whatsapp":null,"address":"Rua Caminho Fundo, Pedreira, 9630-172","has_website":false,"has_booking":false,"has_analytics":false,"has_facebook_pixel":false,"has_ssl":false,"is_mobile_friendly":false,"gaps":["sem_website","sem_reservas","sem_whatsapp","sem_analytics","sem_facebook_pixel"],"status":"pendente"},{"id":341,"name":"Casa de pasto tavares","category":"restaurantes","nicho":"cafes","score":82,"lat":37.7389768,"lng":-25.6704111,"municipality":"Sao Miguel, Acores","phone":null,"email":null,"website":null,"whatsapp":null,"address":null,"has_website":false,"has_booking":false,"has_analytics":false,"has_facebook_pixel":false,"has_ssl":false,"is_mobile_friendly":false,"gaps":["sem_website","sem_reservas","sem_whatsapp","sem_analytics","sem_facebook_pixel"],"status":"pendente"},{"id":67,"name":"Cavalo Branco","category":"restaurantes","nicho":"restaurantes","score":82,"lat":37.8754125,"lng":-25.725711,"municipality":"Sao Miguel, Acores","phone":null,"email":null,"website":null,"whatsapp":null,"address":null,"has_website":false,"has_booking":false,"has_analytics":false,"has_facebook_pixel":false,"has_ssl":false,"is_mobile_friendly":false,"gaps":["sem_website","sem_reservas","sem_whatsapp","sem_analytics","sem_facebook_pixel"],"status":"pendente"},{"id":382,"name":"Central Parque","category":"restaurantes","nicho":"cafes","score":82,"lat":37.7450601,"lng":-25.5750124,"municipality":"Sao Miguel, Acores","phone":null,"email":null,"website":null,"whatsapp":null,"address":null,"has_website":false,"has_booking":false,"has_analytics":false,"has_facebook_pixel":false,"has_ssl":false,"is_mobile_friendly":false,"gaps":["sem_website","sem_reservas","sem_whatsapp","sem_analytics","sem_facebook_pixel"],"status":"pendente"},{"id":773,"name":"Centro Lomba - Centro de Reparações Mecânicas","category":"servicos","nicho":"garagens","score":82,"lat":37.8452587,"lng":-25.16217,"municipality":"Sao Miguel, Acores","phone":"+351 296 486 120","email":null,"website":null,"whatsapp":null,"address":"Estrada Regional 14, Lomba da Fazenda, 9630-103","has_website":false,"has_booking":false,"has_analytics":false,"has_facebook_pixel":false,"has_ssl":false,"is_mobile_friendly":false,"gaps":["sem_website","sem_reservas","sem_whatsapp","sem_analytics","sem_facebook_pixel"],"status":"pendente"},{"id":690,"name":"Centro Médico Doutora Cristina Gaspar – Medicina Dentária e Pediatria","category":"clinicas","nicho":"clinicas","score":82,"lat":37.8328088,"lng":-25.1460637,"municipality":"Sao Miguel, Acores","phone":"+351 296 488689","email":null,"website":null,"whatsapp":null,"address":"Rua Doutor António Alves de Oliveira 1, Nordeste, 9630-145","has_website":false,"has_booking":false,"has_analytics":false,"has_facebook_pixel":false,"has_ssl":false,"is_mobile_friendly":false,"gaps":["sem_website","sem_reservas","sem_whatsapp","sem_analytics","sem_facebook_pixel"],"status":"pendente"},{"id":876,"name":"Centro da Vila","category":"servicos","nicho":"supermercados","score":82,"lat":37.7157383,"lng":-25.433901,"municipality":"Sao Miguel, Acores","phone":null,"email":null,"website":null,"whatsapp":null,"address":null,"has_website":false,"has_booking":false,"has_analytics":false,"has_facebook_pixel":false,"has_ssl":false,"is_mobile_friendly":false,"gaps":["sem_website","sem_reservas","sem_whatsapp","sem_analytics","sem_facebook_pixel"],"status":"pendente"},{"id":1282,"name":"Centro de Saúde de São Roque do Pico","category":"clinicas","nicho":"clinicas","score":82,"lat":38.5305357,"lng":-28.3334344,"municipality":"Pico, Acores","phone":"+351 292 648 070","email":null,"website":null,"whatsapp":null,"address":"Avenida António Simas da Costa, São Roque do Pico, 9940-232","has_website":false,"has_booking":false,"has_analytics":false,"has_facebook_pixel":false,"has_ssl":false,"is_mobile_friendly":false,"gaps":["sem_website","sem_reservas","sem_whatsapp","sem_analytics","sem_facebook_pixel"],"status":"pendente"},{"id":1366,"name":"Centro de Saúde de Vila do Porto","category":"clinicas","nicho":"clinicas","score":82,"lat":36.9598563,"lng":-25.1453481,"municipality":"Santa Maria, Acores","phone":"+351 296820100","email":null,"website":null,"whatsapp":null,"address":"Avenida Santa Maria, Vila do Porto, 9580-501","has_website":false,"has_booking":false,"has_analytics":false,"has_facebook_pixel":false,"has_ssl":false,"is_mobile_friendly":false,"gaps":["sem_website","sem_reservas","sem_whatsapp","sem_analytics","sem_facebook_pixel"],"status":"pendente"},{"id":186,"name":"Cervejaria Docas","category":"restaurantes","nicho":"restaurantes","score":82,"lat":37.7386338,"lng":-25.6615871,"municipality":"Sao Miguel, Acores","phone":null,"email":null,"website":null,"whatsapp":null,"address":null,"has_website":false,"has_booking":false,"has_analytics":false,"has_facebook_pixel":false,"has_ssl":false,"is_mobile_friendly":false,"gaps":["sem_website","sem_reservas","sem_whatsapp","sem_analytics","sem_facebook_pixel"],"status":"pendente"},{"id":239,"name":"Cervejaria O Silva","category":"restaurantes","nicho":"restaurantes","score":82,"lat":37.8031866,"lng":-25.7930959,"municipality":"Sao Miguel, Acores","phone":null,"email":null,"website":null,"whatsapp":null,"address":"Rua de Cemitério 13, Feteriras","has_website":false,"has_booking":false,"has_analytics":false,"has_facebook_pixel":false,"has_ssl":false,"is_mobile_friendly":false,"gaps":["sem_website","sem_reservas","sem_whatsapp","sem_analytics","sem_facebook_pixel"],"status":"pendente"},{"id":285,"name":"Cervejaria Refêga","category":"restaurantes","nicho":"cafes","score":82,"lat":37.8280364,"lng":-25.6408195,"municipality":"Sao Miguel, Acores","phone":null,"email":null,"website":null,"whatsapp":null,"address":null,"has_website":false,"has_booking":false,"has_analytics":false,"has_facebook_pixel":false,"has_ssl":false,"is_mobile_friendly":false,"gaps":["sem_website","sem_reservas","sem_whatsapp","sem_analytics","sem_facebook_pixel"],"status":"pendente"},{"id":139,"name":"Cervejaria portas da cidade","category":"restaurantes","nicho":"restaurantes","score":82,"lat":37.739858,"lng":-25.6678743,"municipality":"Sao Miguel, Acores","phone":"+351 296 283 873","email":null,"website":null,"whatsapp":null,"address":null,"has_website":false,"has_booking":false,"has_analytics":false,"has_facebook_pixel":false,"has_ssl":false,"is_mobile_friendly":false,"gaps":["sem_website","sem_reservas","sem_whatsapp","sem_analytics","sem_facebook_pixel"],"status":"pendente"},{"id":1314,"name":"Charlie's Place","category":"restaurantes","nicho":"cafes","score":82,"lat":38.6820031,"lng":-28.2096114,"municipality":"Sao Jorge, Acores","phone":null,"email":null,"website":null,"whatsapp":null,"address":null,"has_website":false,"has_booking":false,"has_analytics":false,"has_facebook_pixel":false,"has_ssl":false,"is_mobile_friendly":false,"gaps":["sem_website","sem_reservas","sem_whatsapp","sem_analytics","sem_facebook_pixel"],"status":"pendente"},{"id":1201,"name":"Cintia Trocades Instituto de Beleza","category":"saloes","nicho":"cabeleireiros","score":82,"lat":38.5250045,"lng":-28.6346224,"municipality":"Faial, Acores","phone":"+351 292392575","email":null,"website":null,"whatsapp":null,"address":"Rua do Castelo 44F, Horta (Angústias), 9900-069","has_website":false,"has_booking":false,"has_analytics":false,"has_facebook_pixel":false,"has_ssl":false,"is_mobile_friendly":false,"gaps":["sem_website","sem_reservas","sem_whatsapp","sem_analytics","sem_facebook_pixel"],"status":"pendente"},{"id":784,"name":"Citröen","category":"servicos","nicho":"garagens","score":82,"lat":37.749954,"lng":-25.6582756,"municipality":"Sao Miguel, Acores","phone":null,"email":null,"website":null,"whatsapp":null,"address":null,"has_website":false,"has_booking":false,"has_analytics":false,"has_facebook_pixel":false,"has_ssl":false,"is_mobile_friendly":false,"gaps":["sem_website","sem_reservas","sem_whatsapp","sem_analytics","sem_facebook_pixel"],"status":"pendente"},{"id":1361,"name":"Clube ANA","category":"restaurantes","nicho":"cafes","score":82,"lat":36.9679984,"lng":-25.1557379,"municipality":"Santa Maria, Acores","phone":null,"email":null,"website":null,"whatsapp":null,"address":null,"has_website":false,"has_booking":false,"has_analytics":false,"has_facebook_pixel":false,"has_ssl":false,"is_mobile_friendly":false,"gaps":["sem_website","sem_reservas","sem_whatsapp","sem_analytics","sem_facebook_pixel"],"status":"pendente"},{"id":412,"name":"Clube Bar O Jaguar","category":"restaurantes","nicho":"bares","score":82,"lat":37.7205162,"lng":-25.5111773,"municipality":"Sao Miguel, Acores","phone":null,"email":null,"website":null,"whatsapp":null,"address":"Praca da Republica 7, Água de Pau, 9560","has_website":false,"has_booking":false,"has_analytics":false,"has_facebook_pixel":false,"has_ssl":false,"is_mobile_friendly":false,"gaps":["sem_website","sem_reservas","sem_whatsapp","sem_analytics","sem_facebook_pixel"],"status":"pendente"},{"id":1284,"name":"Clube Naval de Velas","category":"restaurantes","nicho":"restaurantes","score":82,"lat":38.678958,"lng":-28.2045101,"municipality":"Sao Jorge, Acores","phone":"+351 295 098 091","email":null,"website":null,"whatsapp":null,"address":null,"has_website":false,"has_booking":false,"has_analytics":false,"has_facebook_pixel":false,"has_ssl":false,"is_mobile_friendly":false,"gaps":["sem_website","sem_reservas","sem_whatsapp","sem_analytics","sem_facebook_pixel"],"status":"pendente"},{"id":1070,"name":"Coffee Cabana","category":"restaurantes","nicho":"cafes","score":82,"lat":38.6580424,"lng":-27.2551665,"municipality":"Terceira, Acores","phone":null,"email":null,"website":null,"whatsapp":null,"address":null,"has_website":false,"has_booking":false,"has_analytics":false,"has_facebook_pixel":false,"has_ssl":false,"is_mobile_friendly":false,"gaps":["sem_website","sem_reservas","sem_whatsapp","sem_analytics","sem_facebook_pixel"],"status":"pendente"},{"id":818,"name":"Cooperativa de Consumo","category":"servicos","nicho":"supermercados","score":82,"lat":37.8021418,"lng":-25.6120421,"municipality":"Sao Miguel, Acores","phone":"+351 296 498 877","email":null,"website":null,"whatsapp":null,"address":null,"has_website":false,"has_booking":false,"has_analytics":false,"has_facebook_pixel":false,"has_ssl":false,"is_mobile_friendly":false,"gaps":["sem_website","sem_reservas","sem_whatsapp","sem_analytics","sem_facebook_pixel"],"status":"pendente"},{"id":97,"name":"Cozinha Kairós","category":"restaurantes","nicho":"restaurantes","score":82,"lat":37.7434776,"lng":-25.6822064,"municipality":"Sao Miguel, Acores","phone":null,"email":null,"website":null,"whatsapp":null,"address":null,"has_website":false,"has_booking":false,"has_analytics":false,"has_facebook_pixel":false,"has_ssl":false,"is_mobile_friendly":false,"gaps":["sem_website","sem_reservas","sem_whatsapp","sem_analytics","sem_facebook_pixel"],"status":"pendente"},{"id":55,"name":"Cozinha d'Arlete","category":"restaurantes","nicho":"restaurantes","score":82,"lat":37.7526615,"lng":-25.6592452,"municipality":"Sao Miguel, Acores","phone":null,"email":null,"website":null,"whatsapp":null,"address":null,"has_website":false,"has_booking":false,"has_analytics":false,"has_facebook_pixel":false,"has_ssl":false,"is_mobile_friendly":false,"gaps":["sem_website","sem_reservas","sem_whatsapp","sem_analytics","sem_facebook_pixel"],"status":"pendente"},{"id":760,"name":"Crinela Salão","category":"saloes","nicho":"cabeleireiros","score":82,"lat":37.7431538,"lng":-25.6699695,"municipality":"Sao Miguel, Acores","phone":null,"email":null,"website":null,"whatsapp":null,"address":null,"has_website":false,"has_booking":false,"has_analytics":false,"has_facebook_pixel":false,"has_ssl":false,"is_mobile_friendly":false,"gaps":["sem_website","sem_reservas","sem_whatsapp","sem_analytics","sem_facebook_pixel"],"status":"pendente"},{"id":1056,"name":"Criscilia","category":"restaurantes","nicho":"cafes","score":82,"lat":38.6960051,"lng":-27.3384457,"municipality":"Terceira, Acores","phone":null,"email":null,"website":null,"whatsapp":null,"address":null,"has_website":false,"has_booking":false,"has_analytics":false,"has_facebook_pixel":false,"has_ssl":false,"is_mobile_friendly":false,"gaps":["sem_website","sem_reservas","sem_whatsapp","sem_analytics","sem_facebook_pixel"],"status":"pendente"},{"id":211,"name":"D'Quina","category":"restaurantes","nicho":"restaurantes","score":82,"lat":37.8222021,"lng":-25.5243438,"municipality":"Sao Miguel, Acores","phone":null,"email":null,"website":null,"whatsapp":null,"address":null,"has_website":false,"has_booking":false,"has_analytics":false,"has_facebook_pixel":false,"has_ssl":false,"is_mobile_friendly":false,"gaps":["sem_website","sem_reservas","sem_whatsapp","sem_analytics","sem_facebook_pixel"],"status":"pendente"},{"id":214,"name":"D'quinA","category":"restaurantes","nicho":"restaurantes","score":82,"lat":37.822244,"lng":-25.5242564,"municipality":"Sao Miguel, Acores","phone":null,"email":null,"website":null,"whatsapp":null,"address":null,"has_website":false,"has_booking":false,"has_analytics":false,"has_facebook_pixel":false,"has_ssl":false,"is_mobile_friendly":false,"gaps":["sem_website","sem_reservas","sem_whatsapp","sem_analytics","sem_facebook_pixel"],"status":"pendente"},{"id":1269,"name":"Danny's Cafe","category":"restaurantes","nicho":"cafes","score":82,"lat":38.3969486,"lng":-28.2522898,"municipality":"Pico, Acores","phone":"+351 910 254 187","email":null,"website":null,"whatsapp":null,"address":"Rua Capitão Mor Garcia Gonçalves Madruga, 9930-126","has_website":false,"has_booking":false,"has_analytics":false,"has_facebook_pixel":false,"has_ssl":false,"is_mobile_friendly":false,"gaps":["sem_website","sem_reservas","sem_whatsapp","sem_analytics","sem_facebook_pixel"],"status":"pendente"},{"id":1316,"name":"Docilha","category":"restaurantes","nicho":"cafes","score":82,"lat":38.6647096,"lng":-28.1683674,"municipality":"Sao Jorge, Acores","phone":null,"email":null,"website":null,"whatsapp":null,"address":null,"has_website":false,"has_booking":false,"has_analytics":false,"has_facebook_pixel":false,"has_ssl":false,"is_mobile_friendly":false,"gaps":["sem_website","sem_reservas","sem_whatsapp","sem_analytics","sem_facebook_pixel"],"status":"pendente"},{"id":405,"name":"Doris Bar","category":"restaurantes","nicho":"bares","score":82,"lat":37.7393012,"lng":-25.6627746,"municipality":"Sao Miguel, Acores","phone":null,"email":null,"website":null,"whatsapp":null,"address":"Portas do Mar","has_website":false,"has_booking":false,"has_analytics":false,"has_facebook_pixel":false,"has_ssl":false,"is_mobile_friendly":false,"gaps":["sem_website","sem_reservas","sem_whatsapp","sem_analytics","sem_facebook_pixel"],"status":"pendente"},{"id":854,"name":"Duty Free Store","category":"servicos","nicho":"supermercados","score":82,"lat":37.7491786,"lng":-25.710522,"municipality":"Sao Miguel, Acores","phone":null,"email":null,"website":null,"whatsapp":null,"address":null,"has_website":false,"has_booking":false,"has_analytics":false,"has_facebook_pixel":false,"has_ssl":false,"is_mobile_friendly":false,"gaps":["sem_website","sem_reservas","sem_whatsapp","sem_analytics","sem_facebook_pixel"],"status":"pendente"},{"id":1117,"name":"Eduardo","category":"servicos","nicho":"garagens","score":82,"lat":38.7909257,"lng":-27.2210532,"municipality":"Terceira, Acores","phone":null,"email":null,"website":null,"whatsapp":null,"address":null,"has_website":false,"has_booking":false,"has_analytics":false,"has_facebook_pixel":false,"has_ssl":false,"is_mobile_friendly":false,"gaps":["sem_website","sem_reservas","sem_whatsapp","sem_analytics","sem_facebook_pixel"],"status":"pendente"},{"id":1113,"name":"Electro Car","category":"servicos","nicho":"garagens","score":82,"lat":38.7912279,"lng":-27.2137456,"municipality":"Terceira, Acores","phone":null,"email":null,"website":null,"whatsapp":null,"address":null,"has_website":false,"has_booking":false,"has_analytics":false,"has_facebook_pixel":false,"has_ssl":false,"is_mobile_friendly":false,"gaps":["sem_website","sem_reservas","sem_whatsapp","sem_analytics","sem_facebook_pixel"],"status":"pendente"},{"id":752,"name":"Elisabete e Paula - Cabeleireiro e Estética","category":"saloes","nicho":"cabeleireiros","score":82,"lat":37.8303475,"lng":-25.1459346,"municipality":"Sao Miguel, Acores","phone":"+351 296 965122","email":null,"website":null,"whatsapp":null,"address":"Rua António Alves de Oiveira 50; 52, Nordeste, 9630-147","has_website":false,"has_booking":false,"has_analytics":false,"has_facebook_pixel":false,"has_ssl":false,"is_mobile_friendly":false,"gaps":["sem_website","sem_reservas","sem_whatsapp","sem_analytics","sem_facebook_pixel"],"status":"pendente"},{"id":754,"name":"Elisabeth Cabeleireiro e Estética","category":"saloes","nicho":"cabeleireiros","score":82,"lat":37.8321582,"lng":-25.1469388,"municipality":"Sao Miguel, Acores","phone":"+351 912368342","email":null,"website":null,"whatsapp":null,"address":"Rua Doutor Manuel João da Silveira 8, Nordeste, 9630-142","has_website":false,"has_booking":false,"has_analytics":false,"has_facebook_pixel":false,"has_ssl":false,"is_mobile_friendly":false,"gaps":["sem_website","sem_reservas","sem_whatsapp","sem_analytics","sem_facebook_pixel"],"status":"pendente"},{"id":1355,"name":"Espaço em Cena","category":"restaurantes","nicho":"restaurantes","score":82,"lat":36.9617517,"lng":-25.1324392,"municipality":"Santa Maria, Acores","phone":"+351 961809446","email":null,"website":null,"whatsapp":null,"address":null,"has_website":false,"has_booking":false,"has_analytics":false,"has_facebook_pixel":false,"has_ssl":false,"is_mobile_friendly":false,"gaps":["sem_website","sem_reservas","sem_whatsapp","sem_analytics","sem_facebook_pixel"],"status":"pendente"},{"id":356,"name":"Esplanada Campo","category":"restaurantes","nicho":"cafes","score":82,"lat":37.7376036,"lng":-25.6726315,"municipality":"Sao Miguel, Acores","phone":null,"email":null,"website":null,"whatsapp":null,"address":"Campo de São Francisco, Ponta Delgada","has_website":false,"has_booking":false,"has_analytics":false,"has_facebook_pixel":false,"has_ssl":false,"is_mobile_friendly":false,"gaps":["sem_website","sem_reservas","sem_whatsapp","sem_analytics","sem_facebook_pixel"],"status":"pendente"},{"id":1022,"name":"Esplanada do Café Aliança","category":"restaurantes","nicho":"cafes","score":82,"lat":38.6558496,"lng":-27.218614,"municipality":"Terceira, Acores","phone":null,"email":null,"website":null,"whatsapp":null,"address":"Praça Velha, Angra Do Heroísmo","has_website":false,"has_booking":false,"has_analytics":false,"has_facebook_pixel":false,"has_ssl":false,"is_mobile_friendly":false,"gaps":["sem_website","sem_reservas","sem_whatsapp","sem_analytics","sem_facebook_pixel"],"status":"pendente"},