[{"gaps":["sem_reservas","sem_whatsapp","sem_facebook_pixel"],"name":"Pizza Al Taglio by Arte Gourmet","lat":37.7449583,"category":"restaurantes","score":75,"has_analytics":true,"lng":-25.5798802,"municipality":"Sao Miguel, Acores","has_ssl":true,"has_website":true,"id":150,"has_booking":false,"is_mobile_friendly":true,"status":"analisado","has_facebook_pixel":false,"nicho":"restaurantes"},{"gaps":["sem_reservas","sem_whatsapp","sem_facebook_pixel"],"name":"Louvre Michaelense","lat":37.7404972,"category":"restaurantes","score":74,"has_analytics":true,"lng":-25.6687181,"municipality":"Sao Miguel, Acores","has_ssl":true,"has_website":true,"id":287,"has_booking":false,"is_mobile_friendly":true,"status":"analisado","has_facebook_pixel":false,"nicho":"cafes"},{"gaps":["sem_reservas","sem_whatsapp","sem_facebook_pixel"],"name":"Queijaria Furnense","lat":37.7702427,"category":"restaurantes","score":74,"has_analytics":true,"lng":-25.3157689,"municipality":"Sao Miguel, Acores","has_ssl":true,"has_website":true,"id":201,"has_booking":false,"is_mobile_friendly":true,"status":"analisado","has_facebook_pixel":false,"nicho":"restaurantes"},{"gaps":["sem_reservas","sem_whatsapp","sem_analytics","sem_facebook_pixel"],"name":"Women's Hairdresser ","lat":38.6561396,"category":"saloes","score":74,"has_analytics":false,"lng":-27.2699643,"municipality":"Terceira, Acores","has_ssl":true,"has_website":true,"id":1105,"has_booking":false,"is_mobile_friendly":true,"status":"analisado","has_facebook_pixel":false,"nicho":"cabeleireiros"},{"gaps":["sem_reservas","sem_whatsapp","sem_analytics","sem_facebook_pixel"],"name":"Casa do Teatro","lat":37.742344,"category":"alojamento","score":72,"has_analytics":false,"lng":-25.6669914,"municipality":"Sao Miguel, Acores","has_ssl":true,"has_website":true,"id":508,"has_booking":false,"is_mobile_friendly":true,"status":"analisado","has_facebook_pixel":false,"nicho":"hoteis"},{"gaps":["sem_reservas","sem_whatsapp","sem_facebook_pixel"],"name":"Doris Bar","lat":37.7393012,"category":"restaurantes","score":70,"has_analytics":true,"lng":-25.6627746,"municipality":"Sao Miguel, Acores","has_ssl":true,"has_website":true,"id":405,"has_booking":false,"is_mobile_friendly":true,"status":"analisado","has_facebook_pixel":false,"nicho":"bares"},{"gaps":["sem_reservas","sem_whatsapp","sem_facebook_pixel"],"name":"Azores Forever","lat":37.7399018,"category":"restaurantes","score":69,"has_analytics":true,"lng":-25.6688363,"municipality":"Sao Miguel, Acores","has_ssl":true,"has_website":true,"id":447,"has_booking":false,"is_mobile_friendly":true,"status":"analisado","has_facebook_pixel":false,"nicho":"bares"},{"gaps":["sem_reservas","sem_whatsapp","sem_facebook_pixel"],"name":"Bar do Pi","lat":37.7390392,"category":"restaurantes","score":69,"has_analytics":true,"lng":-25.6606623,"municipality":"Sao Miguel, Acores","has_ssl":true,"has_website":true,"id":430,"has_booking":false,"is_mobile_friendly":true,"status":"analisado","has_facebook_pixel":false,"nicho":"bares"},{"gaps":["sem_reservas","sem_whatsapp","sem_facebook_pixel"],"name":"Coffee Bar Alfredo","lat":37.8161759,"category":"restaurantes","score":69,"has_analytics":true,"lng":-25.4121108,"municipality":"Sao Miguel, Acores","has_ssl":true,"has_website":true,"id":243,"has_booking":false,"is_mobile_friendly":true,"status":"analisado","has_facebook_pixel":false,"nicho":"restaurantes"},{"gaps":["sem_reservas","sem_whatsapp","sem_facebook_pixel"],"name":"Haibu","lat":37.742108,"category":"restaurantes","score":69,"has_analytics":true,"lng":-25.6698311,"municipality":"Sao Miguel, Acores","has_ssl":true,"has_website":true,"id":47,"has_booking":false,"is_mobile_friendly":true,"status":"analisado","has_facebook_pixel":false,"nicho":"restaurantes"},{"gaps":["sem_reservas","sem_whatsapp","sem_facebook_pixel"],"name":"Príncipe","lat":38.5285387,"category":"restaurantes","score":69,"has_analytics":true,"lng":-28.6281623,"municipality":"Faial, Acores","has_ssl":true,"has_website":true,"id":1134,"has_booking":false,"is_mobile_friendly":true,"status":"analisado","has_facebook_pixel":false,"nicho":"restaurantes"},{"gaps":["sem_reservas","sem_whatsapp","sem_facebook_pixel"],"name":"o giro","lat":37.7390829,"category":"restaurantes","score":69,"has_analytics":true,"lng":-25.6727623,"municipality":"Sao Miguel, Acores","has_ssl":true,"has_website":true,"id":26,"has_booking":false,"is_mobile_friendly":true,"status":"analisado","has_facebook_pixel":false,"nicho":"restaurantes"},{"gaps":["sem_reservas","sem_whatsapp","sem_analytics","sem_facebook_pixel","sem_mobile"],"name":"O Roberto","lat":37.7387827,"category":"restaurantes","score":65,"has_analytics":false,"lng":-25.6688382,"municipality":"Sao Miguel, Acores","has_ssl":true,"has_website":true,"id":5,"has_booking":false,"is_mobile_friendly":false,"status":"analisado","has_facebook_pixel":false,"nicho":"restaurantes"},{"gaps":["sem_reservas","sem_whatsapp","sem_analytics","sem_facebook_pixel"],"name":"Pacheco","lat":37.8220383,"category":"restaurantes","score":65,"has_analytics":false,"lng":-25.5243684,"municipality":"Sao Miguel, Acores","has_ssl":true,"has_website":true,"id":457,"has_booking":false,"is_mobile_friendly":true,"status":"analisado","has_facebook_pixel":false,"nicho":"bares"},{"gaps":["sem_reservas","sem_whatsapp","sem_analytics","sem_facebook_pixel"],"name":"Pedro Homem","lat":37.7422751,"category":"restaurantes","score":65,"has_analytics":false,"lng":-25.669156,"municipality":"Sao Miguel, Acores","has_ssl":true,"has_website":true,"id":449,"has_booking":false,"is_mobile_friendly":true,"status":"analisado","has_facebook_pixel":false,"nicho":"bares"},{"gaps":["sem_reservas","sem_whatsapp"],"name":"Restaurante Lima","lat":38.6568431,"category":"restaurantes","score":65,"has_analytics":true,"lng":-27.2687486,"municipality":"Terceira, Acores","has_ssl":true,"has_website":true,"id":1000,"has_booking":false,"is_mobile_friendly":true,"status":"analisado","has_facebook_pixel":true,"nicho":"restaurantes"},{"gaps":["sem_reservas","sem_whatsapp","sem_facebook_pixel"],"name":"Momentos","lat":37.7388508,"category":"restaurantes","score":64,"has_analytics":true,"lng":-25.6610984,"municipality":"Sao Miguel, Acores","has_ssl":true,"has_website":true,"id":79,"has_booking":false,"is_mobile_friendly":true,"status":"analisado","has_facebook_pixel":false,"nicho":"restaurantes"},{"gaps":["sem_reservas","sem_whatsapp","sem_analytics","sem_facebook_pixel","sem_mobile"],"name":"Alabote","lat":37.8248776,"category":"restaurantes","score":62,"has_analytics":false,"lng":-25.5222615,"municipality":"Sao Miguel, Acores","has_ssl":true,"has_website":true,"id":70,"has_booking":false,"is_mobile_friendly":false,"status":"analisado","has_facebook_pixel":false,"nicho":"restaurantes"},{"gaps":["sem_reservas","sem_whatsapp","sem_analytics","sem_facebook_pixel","sem_mobile"],"name":"Ponta Negra","lat":36.9876537,"category":"restaurantes","score":62,"has_analytics":false,"lng":-25.054541,"municipality":"Santa Maria, Acores","has_ssl":true,"has_website":true,"id":1356,"has_booking":false,"is_mobile_friendly":false,"status":"analisado","has_facebook_pixel":false,"nicho":"restaurantes"},{"gaps":["sem_reservas","sem_whatsapp","sem_facebook_pixel"],"name":"Quinta de São Caetano","lat":37.7491506,"category":"alojamento","score":62,"has_analytics":true,"lng":-25.6088147,"municipality":"Sao Miguel, Acores","has_ssl":true,"has_website":true,"id":661,"has_booking":false,"is_mobile_friendly":true,"status":"analisado","has_facebook_pixel":false,"nicho":"alojamento_local"},{"gaps":["sem_reservas","sem_whatsapp","sem_analytics","sem_facebook_pixel","sem_ssl"],"name":"O Sole Mio São Vicente Ferreira","lat":37.8102763,"category":"restaurantes","score":60,"has_analytics":false,"lng":-25.6737361,"municipality":"Sao Miguel, Acores","has_ssl":false,"has_website":true,"id":206,"has_booking":false,"is_mobile_friendly":true,"status":"analisado","has_facebook_pixel":false,"nicho":"restaurantes"},{"gaps":["sem_reservas","sem_whatsapp","sem_analytics","sem_facebook_pixel","sem_mobile"],"name":"Café Pérola","lat":37.8509812,"category":"restaurantes","score":59,"has_analytics":false,"lng":-25.2658855,"municipality":"Sao Miguel, Acores","has_ssl":true,"has_website":true,"id":310,"has_booking":false,"is_mobile_friendly":false,"status":"analisado","has_facebook_pixel":false,"nicho":"cafes"},{"gaps":["sem_reservas","sem_whatsapp","sem_analytics","sem_facebook_pixel"],"name":"Kabem Todos","lat":38.5377208,"category":"restaurantes","score":59,"has_analytics":false,"lng":-28.6254978,"municipality":"Faial, Acores","has_ssl":true,"has_website":true,"id":1120,"has_booking":false,"is_mobile_friendly":true,"status":"analisado","has_facebook_pixel":false,"nicho":"restaurantes"},{"gaps":["sem_reservas","sem_whatsapp","sem_facebook_pixel"],"name":"Nutrimetics Consultant","lat":37.7433356,"category":"saloes","score":59,"has_analytics":true,"lng":-25.6811067,"municipality":"Sao Miguel, Acores","has_ssl":true,"has_website":true,"id":746,"has_booking":false,"is_mobile_friendly":true,"status":"analisado","has_facebook_pixel":false,"nicho":"cabeleireiros"},{"gaps":["sem_reservas","sem_whatsapp","sem_analytics","sem_facebook_pixel"],"name":"Bliss Beach Club Faial","lat":38.555363,"category":"restaurantes","score":58,"has_analytics":false,"lng":-28.6105647,"municipality":"Faial, Acores","has_ssl":true,"has_website":true,"id":1146,"has_booking":false,"is_mobile_friendly":true,"status":"analisado","has_facebook_pixel":false,"nicho":"restaurantes"},{"gaps":["sem_reservas","sem_whatsapp","sem_facebook_pixel"],"name":"Pingo Doce","lat":37.753079,"category":"servicos","score":58,"has_analytics":true,"lng":-25.6570981,"municipality":"Sao Miguel, Acores","has_ssl":true,"has_website":true,"id":918,"has_booking":false,"is_mobile_friendly":true,"status":"analisado","has_facebook_pixel":false,"nicho":"supermercados"},{"gaps":["sem_reservas","sem_whatsapp","sem_facebook_pixel","sem_ssl"],"name":"Snack Bar Jordao","lat":37.7405787,"category":"restaurantes","score":58,"has_analytics":true,"lng":-25.6684968,"municipality":"Sao Miguel, Acores","has_ssl":false,"has_website":true,"id":423,"has_booking":false,"is_mobile_friendly":true,"status":"analisado","has_facebook_pixel":false,"nicho":"bares"},{"gaps":["sem_reservas","sem_whatsapp","sem_analytics","sem_facebook_pixel","sem_mobile"],"name":"A Merenda","lat":37.8209019,"category":"restaurantes","score":57,"has_analytics":false,"lng":-25.5243449,"municipality":"Sao Miguel, Acores","has_ssl":true,"has_website":true,"id":256,"has_booking":false,"is_mobile_friendly":false,"status":"analisado","has_facebook_pixel":false,"nicho":"cafes"},{"gaps":["sem_reservas","sem_whatsapp","sem_analytics","sem_facebook_pixel"],"name":"Black Whale","lat":37.7162449,"category":"restaurantes","score":56,"has_analytics":false,"lng":-25.432874,"municipality":"Sao Miguel, Acores","has_ssl":true,"has_website":true,"id":175,"has_booking":false,"is_mobile_friendly":true,"status":"analisado","has_facebook_pixel":false,"nicho":"restaurantes"},{"gaps":["sem_reservas","sem_whatsapp","sem_analytics","sem_facebook_pixel","sem_mobile"],"name":"Cachalote","lat":38.6742504,"category":"restaurantes","score":56,"has_analytics":false,"lng":-27.2001339,"municipality":"Terceira, Acores","has_ssl":true,"has_website":true,"id":993,"has_booking":false,"is_mobile_friendly":false,"status":"analisado","has_facebook_pixel":false,"nicho":"restaurantes"},{"gaps":["sem_reservas","sem_whatsapp","sem_analytics","sem_facebook_pixel"],"name":"Café Nunes","lat":38.5840381,"category":"restaurantes","score":56,"has_analytics":false,"lng":-27.9320186,"municipality":"Sao Jorge, Acores","has_ssl":true,"has_website":true,"id":1317,"has_booking":false,"is_mobile_friendly":true,"status":"analisado","has_facebook_pixel":false,"nicho":"cafes"},{"gaps":["sem_reservas","sem_whatsapp","sem_facebook_pixel"],"name":"Cantinho da Luz","lat":37.8111101,"category":"alojamento","score":56,"has_analytics":true,"lng":-25.6348041,"municipality":"Sao Miguel, Acores","has_ssl":true,"has_website":true,"id":497,"has_booking":false,"is_mobile_friendly":true,"status":"analisado","has_facebook_pixel":false,"nicho":"hoteis"},{"gaps":["sem_reservas","sem_whatsapp","sem_facebook_pixel"],"name":"Casa das Camélias (AL)","lat":37.8058552,"category":"alojamento","score":56,"has_analytics":true,"lng":-25.1438752,"municipality":"Sao Miguel, Acores","has_ssl":true,"has_website":true,"id":628,"has_booking":false,"is_mobile_friendly":true,"status":"analisado","has_facebook_pixel":false,"nicho":"alojamento_local"},{"gaps":["sem_reservas","sem_whatsapp","sem_analytics","sem_facebook_pixel"],"name":"Casa do Sol Nascente (AL)","lat":37.8512041,"category":"alojamento","score":56,"has_analytics":false,"lng":-25.2465075,"municipality":"Sao Miguel, Acores","has_ssl":true,"has_website":true,"id":631,"has_booking":false,"is_mobile_friendly":true,"status":"analisado","has_facebook_pixel":false,"nicho":"alojamento_local"},{"gaps":["sem_reservas","sem_whatsapp","sem_facebook_pixel"],"name":"A Barrica","lat":38.6544062,"category":"restaurantes","score":55,"has_analytics":true,"lng":-27.2190593,"municipality":"Terceira, Acores","has_ssl":true,"has_website":true,"id":1007,"has_booking":false,"is_mobile_friendly":true,"status":"analisado","has_facebook_pixel":false,"nicho":"restaurantes"},{"gaps":["sem_reservas","sem_whatsapp","sem_facebook_pixel"],"name":"Arco-íris Snack-Bar","lat":38.4339369,"category":"restaurantes","score":55,"has_analytics":true,"lng":-28.4559306,"municipality":"Pico, Acores","has_ssl":true,"has_website":true,"id":1217,"has_booking":false,"is_mobile_friendly":true,"status":"analisado","has_facebook_pixel":false,"nicho":"restaurantes"},{"gaps":["sem_reservas","sem_whatsapp","sem_facebook_pixel"],"name":"Bella Italia","lat":37.7383242,"category":"restaurantes","score":55,"has_analytics":true,"lng":-25.6725302,"municipality":"Sao Miguel, Acores","has_ssl":true,"has_website":true,"id":162,"has_booking":false,"is_mobile_friendly":true,"status":"analisado","has_facebook_pixel":false,"nicho":"restaurantes"},{"gaps":["sem_reservas","sem_whatsapp","sem_analytics","sem_facebook_pixel"],"name":"Canadian Villa","lat":37.7420469,"category":"alojamento","score":55,"has_analytics":false,"lng":-25.6707071,"municipality":"Sao Miguel, Acores","has_ssl":true,"has_website":true,"id":566,"has_booking":false,"is_mobile_friendly":true,"status":"analisado","has_facebook_pixel":false,"nicho":"alojamento_local"},{"gaps":["sem_reservas","sem_whatsapp","sem_analytics","sem_facebook_pixel"],"name":"Canadian Villa","lat":37.7413277,"category":"alojamento","score":55,"has_analytics":false,"lng":-25.6703883,"municipality":"Sao Miguel, Acores","has_ssl":true,"has_website":true,"id":568,"has_booking":false,"is_mobile_friendly":true,"status":"analisado","has_facebook_pixel":false,"nicho":"alojamento_local"},{"gaps":["sem_reservas","sem_whatsapp","sem_facebook_pixel"],"name":"Canha Clinic","lat":37.7520192,"category":"clinicas","score":55,"has_analytics":true,"lng":-25.6573932,"municipality":"Sao Miguel, Acores","has_ssl":true,"has_website":true,"id":734,"has_booking":false,"is_mobile_friendly":true,"status":"analisado","has_facebook_pixel":false,"nicho":"medicos"},{"gaps":["sem_reservas","sem_whatsapp","sem_facebook_pixel"],"name":"Casa Ralph & Hertha","lat":37.8937391,"category":"alojamento","score":55,"has_analytics":true,"lng":-25.7947921,"municipality":"Sao Miguel, Acores","has_ssl":true,"has_website":true,"id":529,"has_booking":false,"is_mobile_friendly":true,"status":"analisado","has_facebook_pixel":false,"nicho":"hoteis"},{"gaps":["sem_reservas","sem_whatsapp"],"name":"Casa da Araucária (AL)","lat":37.8391473,"category":"alojamento","score":55,"has_analytics":true,"lng":-25.157506,"municipality":"Sao Miguel, Acores","has_ssl":true,"has_website":true,"id":592,"has_booking":false,"is_mobile_friendly":true,"status":"analisado","has_facebook_pixel":true,"nicho":"alojamento_local"},{"gaps":["sem_reservas","sem_whatsapp"],"name":"Casa da Camélia (AL)","lat":37.8489093,"category":"alojamento","score":55,"has_analytics":true,"lng":-25.1688675,"municipality":"Sao Miguel, Acores","has_ssl":true,"has_website":true,"id":595,"has_booking":false,"is_mobile_friendly":true,"status":"analisado","has_facebook_pixel":true,"nicho":"alojamento_local"},{"gaps":["sem_reservas","sem_whatsapp"],"name":"Casa da Vigia (AL)","lat":37.8537524,"category":"alojamento","score":55,"has_analytics":true,"lng":-25.254129,"municipality":"Sao Miguel, Acores","has_ssl":true,"has_website":true,"id":576,"has_booking":false,"is_mobile_friendly":true,"status":"analisado","has_facebook_pixel":true,"nicho":"alojamento_local"},{"gaps":["sem_reservas","sem_whatsapp","sem_facebook_pixel"],"name":"Casa de Praia","lat":37.7171502,"category":"restaurantes","score":55,"has_analytics":true,"lng":-25.426691,"municipality":"Sao Miguel, Acores","has_ssl":true,"has_website":true,"id":200,"has_booking":false,"is_mobile_friendly":true,"status":"analisado","has_facebook_pixel":false,"nicho":"restaurantes"},{"gaps":["sem_reservas","sem_whatsapp"],"name":"Casa do Atalho (AL)","lat":37.8452431,"category":"alojamento","score":55,"has_analytics":true,"lng":-25.2303318,"municipality":"Sao Miguel, Acores","has_ssl":true,"has_website":true,"id":608,"has_booking":false,"is_mobile_friendly":true,"status":"analisado","has_facebook_pixel":true,"nicho":"alojamento_local"},{"gaps":["sem_reservas","sem_whatsapp"],"name":"Casa d’Eira (AL)","lat":37.8502446,"category":"alojamento","score":55,"has_analytics":true,"lng":-25.1718944,"municipality":"Sao Miguel, Acores","has_ssl":true,"has_website":true,"id":590,"has_booking":false,"is_mobile_friendly":true,"status":"analisado","has_facebook_pixel":true,"nicho":"alojamento_local"},{"gaps":["sem_reservas","sem_whatsapp","sem_facebook_pixel","sem_ssl"],"name":"Clube Naval","lat":36.9465127,"category":"restaurantes","score":55,"has_analytics":true,"lng":-25.1475221,"municipality":"Santa Maria, Acores","has_ssl":false,"has_website":true,"id":1350,"has_booking":false,"is_mobile_friendly":true,"status":"analisado","has_facebook_pixel":false,"nicho":"restaurantes"},{"gaps":["sem_reservas","sem_whatsapp","sem_facebook_pixel"],"name":"Clínica Médica Dentária da Miragaia","lat":38.658422,"category":"clinicas","score":55,"has_analytics":true,"lng":-27.221072,"municipality":"Terceira, Acores","has_ssl":true,"has_website":true,"id":1096,"has_booking":false,"is_mobile_friendly":true,"status":"analisado","has_facebook_pixel":false,"nicho":"dentistas"},{"gaps":["sem_reservas","sem_whatsapp","sem_facebook_pixel"],"name":"Colmeia – Hamburgueria Açoriana","lat":37.7401308,"category":"restaurantes","score":55,"has_analytics":true,"lng":-25.664797,"municipality":"Sao Miguel, Acores","has_ssl":true,"has_website":true,"id":168,"has_booking":false,"is_mobile_friendly":true,"status":"analisado","has_facebook_pixel":false,"nicho":"restaurantes"},{"gaps":["sem_reservas","sem_whatsapp","sem_facebook_pixel"],"name":"Eco-Turismo","lat":37.8620482,"category":"alojamento","score":55,"has_analytics":true,"lng":-25.7963045,"municipality":"Sao Miguel, Acores","has_ssl":true,"has_website":true,"id":546,"has_booking":false,"is_mobile_friendly":true,"status":"analisado","has_facebook_pixel":false,"nicho":"alojamento_local"},{"gaps":["sem_reservas","sem_whatsapp","sem_facebook_pixel"],"name":"Farmácia da Misericórdia do Nordeste","lat":37.8325203,"category":"clinicas","score":55,"has_analytics":true,"lng":-25.1467975,"municipality":"Sao Miguel, Acores","has_ssl":true,"has_website":true,"id":712,"has_booking":false,"is_mobile_friendly":true,"status":"analisado","has_facebook_pixel":false,"nicho":"farmacias"},{"gaps":["sem_reservas","sem_whatsapp","sem_facebook_pixel"],"name":"Gabinete Médico","lat":37.8471261,"category":"clinicas","score":55,"has_analytics":true,"lng":-25.2320225,"municipality":"Sao Miguel, Acores","has_ssl":true,"has_website":true,"id":732,"has_booking":false,"is_mobile_friendly":true,"status":"analisado","has_facebook_pixel":false,"nicho":"medicos"},{"gaps":["sem_reservas","sem_whatsapp","sem_facebook_pixel"],"name":"Gabinete Médico","lat":37.8525506,"category":"clinicas","score":55,"has_analytics":true,"lng":-25.2085891,"municipality":"Sao Miguel, Acores","has_ssl":true,"has_website":true,"id":733,"has_booking":false,"is_mobile_friendly":true,"status":"analisado","has_facebook_pixel":false,"nicho":"medicos"},{"gaps":["sem_reservas","sem_whatsapp","sem_facebook_pixel"],"name":"Hairdresser","lat":37.7448566,"category":"saloes","score":55,"has_analytics":true,"lng":-25.6835284,"municipality":"Sao Miguel, Acores","has_ssl":true,"has_website":true,"id":745,"has_booking":false,"is_mobile_friendly":true,"status":"analisado","has_facebook_pixel":false,"nicho":"cabeleireiros"},{"gaps":["sem_reservas","sem_whatsapp","sem_facebook_pixel"],"name":"José João","lat":39.0514547,"category":"restaurantes","score":55,"has_analytics":true,"lng":-27.971208,"municipality":"Graciosa, Acores","has_ssl":true,"has_website":true,"id":1334,"has_booking":false,"is_mobile_friendly":true,"status":"analisado","has_facebook_pixel":false,"nicho":"restaurantes"},{"gaps":["sem_reservas","sem_whatsapp","sem_facebook_pixel"],"name":"Mercado da Vila","lat":37.7144205,"category":"restaurantes","score":55,"has_analytics":true,"lng":-25.4332782,"municipality":"Sao Miguel, Acores","has_ssl":true,"has_website":true,"id":172,"has_booking":false,"is_mobile_friendly":true,"status":"analisado","has_facebook_pixel":false,"nicho":"restaurantes"},{"gaps":["sem_reservas","sem_whatsapp","sem_analytics","sem_facebook_pixel"],"name":"Moinho de Pedra","lat":39.0555845,"category":"alojamento","score":55,"has_analytics":false,"lng":-27.9705222,"municipality":"Graciosa, Acores","has_ssl":true,"has_website":true,"id":1345,"has_booking":false,"is_mobile_friendly":true,"status":"analisado","has_facebook_pixel":false,"nicho":"hoteis"},{"gaps":["sem_reservas","sem_whatsapp","sem_analytics","sem_facebook_pixel"],"name":"O Silva","lat":37.8131886,"category":"restaurantes","score":55,"has_analytics":false,"lng":-25.5341689,"municipality":"Sao Miguel, Acores","has_ssl":true,"has_website":true,"id":125,"has_booking":false,"is_mobile_friendly":true,"status":"analisado","has_facebook_pixel":false,"nicho":"restaurantes"},{"gaps":["sem_reservas","sem_whatsapp","sem_analytics","sem_facebook_pixel"],"name":"Pesqueiro","lat":37.7387853,"category":"restaurantes","score":55,"has_analytics":false,"lng":-25.6612244,"municipality":"Sao Miguel, Acores","has_ssl":true,"has_website":true,"id":199,"has_booking":false,"is_mobile_friendly":true,"status":"analisado","has_facebook_pixel":false,"nicho":"restaurantes"},{"gaps":["sem_reservas","sem_whatsapp","sem_analytics","sem_facebook_pixel","sem_ssl"],"name":"Pérola do Oceano","lat":37.7222053,"category":"restaurantes","score":55,"has_analytics":false,"lng":-25.5073257,"municipality":"Sao Miguel, Acores","has_ssl":false,"has_website":true,"id":18,"has_booking":false,"is_mobile_friendly":true,"status":"analisado","has_facebook_pixel":false,"nicho":"restaurantes"},{"gaps":["sem_reservas","sem_whatsapp","sem_analytics","sem_facebook_pixel"],"name":"Quebra Mar","lat":38.6539035,"category":"restaurantes","score":55,"has_analytics":false,"lng":-27.2745358,"municipality":"Terceira, Acores","has_ssl":true,"has_website":true,"id":999,"has_booking":false,"is_mobile_friendly":true,"status":"analisado","has_facebook_pixel":false,"nicho":"restaurantes"},{"gaps":["sem_reservas","sem_whatsapp","sem_analytics","sem_facebook_pixel"],"name":"Quinta do Fragoso","lat":39.0169539,"category":"alojamento","score":55,"has_analytics":false,"lng":-27.9813259,"municipality":"Graciosa, Acores","has_ssl":true,"has_website":true,"id":1344,"has_booking":false,"is_mobile_friendly":true,"status":"analisado","has_facebook_pixel":false,"nicho":"hoteis"},{"gaps":["sem_reservas","sem_whatsapp","sem_analytics","sem_facebook_pixel"],"name":"Renato & Ana Capaz","lat":38.5310978,"category":"restaurantes","score":55,"has_analytics":false,"lng":-28.6412916,"municipality":"Faial, Acores","has_ssl":true,"has_website":true,"id":1158,"has_booking":false,"is_mobile_friendly":true,"status":"analisado","has_facebook_pixel":false,"nicho":"restaurantes"},{"gaps":["sem_reservas","sem_whatsapp","sem_analytics","sem_facebook_pixel"],"name":"Restaurante \"O Varadouro\"","lat":38.5651809,"category":"restaurantes","score":55,"has_analytics":false,"lng":-28.7745391,"municipality":"Faial, Acores","has_ssl":true,"has_website":true,"id":1154,"has_booking":false,"is_mobile_friendly":true,"status":"analisado","has_facebook_pixel":false,"nicho":"restaurantes"},{"gaps":["sem_reservas","sem_whatsapp","sem_facebook_pixel"],"name":"Restaurante Preguiça","lat":38.6476477,"category":"restaurantes","score":55,"has_analytics":true,"lng":-27.1177071,"municipality":"Terceira, Acores","has_ssl":true,"has_website":true,"id":984,"has_booking":false,"is_mobile_friendly":true,"status":"analisado","has_facebook_pixel":false,"nicho":"restaurantes"},{"gaps":["sem_reservas","sem_whatsapp","sem_analytics","sem_facebook_pixel"],"name":"Snack Bar 2020","lat":37.7735069,"category":"restaurantes","score":55,"has_analytics":false,"lng":-25.3159442,"municipality":"Sao Miguel, Acores","has_ssl":true,"has_website":true,"id":454,"has_booking":false,"is_mobile_friendly":true,"status":"analisado","has_facebook_pixel":false,"nicho":"bares"},{"gaps":["sem_reservas","sem_whatsapp","sem_analytics","sem_facebook_pixel"],"name":"Snack-Bar Fajã","lat":38.6099414,"category":"restaurantes","score":55,"has_analytics":false,"lng":-28.7614152,"municipality":"Faial, Acores","has_ssl":true,"has_website":true,"id":1150,"has_booking":false,"is_mobile_friendly":true,"status":"analisado","has_facebook_pixel":false,"nicho":"restaurantes"},{"gaps":["sem_reservas","sem_whatsapp"],"name":"St. Peter’s House (AL)","lat":37.8517769,"category":"alojamento","score":55,"has_analytics":true,"lng":-25.2002827,"municipality":"Sao Miguel, Acores","has_ssl":true,"has_website":true,"id":611,"has_booking":false,"is_mobile_friendly":true,"status":"analisado","has_facebook_pixel":true,"nicho":"alojamento_local"},{"gaps":["sem_reservas","sem_whatsapp","sem_facebook_pixel"],"name":"Tixico","lat":37.7424178,"category":"restaurantes","score":55,"has_analytics":true,"lng":-25.6571622,"municipality":"Sao Miguel, Acores","has_ssl":true,"has_website":true,"id":136,"has_booking":false,"is_mobile_friendly":true,"status":"analisado","has_facebook_pixel":false,"nicho":"restaurantes"},{"gaps":["sem_reservas","sem_whatsapp","sem_analytics","sem_facebook_pixel"],"name":"Velense","lat":38.6795246,"category":"restaurantes","score":55,"has_analytics":false,"lng":-28.2047995,"municipality":"Sao Jorge, Acores","has_ssl":true,"has_website":true,"id":1288,"has_booking":false,"is_mobile_friendly":true,"status":"analisado","has_facebook_pixel":false,"nicho":"restaurantes"},{"gaps":["sem_reservas","sem_whatsapp","sem_analytics","sem_facebook_pixel"],"name":"Whale' come ao Pico","lat":38.3959004,"category":"restaurantes","score":55,"has_analytics":false,"lng":-28.2538169,"municipality":"Pico, Acores","has_ssl":true,"has_website":true,"id":1212,"has_booking":false,"is_mobile_friendly":true,"status":"analisado","has_facebook_pixel":false,"nicho":"restaurantes"},{"gaps":["sem_reservas","sem_whatsapp","sem_analytics","sem_facebook_pixel"],"name":"Yummy Restaurante","lat":37.7414767,"category":"restaurantes","score":55,"has_analytics":false,"lng":-25.6697567,"municipality":"Sao Miguel, Acores","has_ssl":true,"has_website":true,"id":181,"has_booking":false,"is_mobile_friendly":true,"status":"analisado","has_facebook_pixel":false,"nicho":"restaurantes"},{"gaps":["sem_reservas","sem_whatsapp"],"name":"casa dos valados","lat":37.749873,"category":"alojamento","score":55,"has_analytics":true,"lng":-25.705613,"municipality":"Sao Miguel, Acores","has_ssl":true,"has_website":true,"id":565,"has_booking":false,"is_mobile_friendly":true,"status":"analisado","has_facebook_pixel":true,"nicho":"alojamento_local"},{"gaps":["sem_reservas","sem_whatsapp","sem_facebook_pixel"],"name":"A Colmeia","lat":37.740291,"category":"restaurantes","score":52,"has_analytics":true,"lng":-25.6643582,"municipality":"Sao Miguel, Acores","has_ssl":true,"has_website":true,"id":251,"has_booking":false,"is_mobile_friendly":true,"status":"analisado","has_facebook_pixel":false,"nicho":"cafes"},{"gaps":["sem_reservas","sem_whatsapp","sem_facebook_pixel"],"name":"Café Central","lat":37.8073907,"category":"restaurantes","score":52,"has_analytics":true,"lng":-25.1415049,"municipality":"Sao Miguel, Acores","has_ssl":true,"has_website":true,"id":319,"has_booking":false,"is_mobile_friendly":true,"status":"analisado","has_facebook_pixel":false,"nicho":"cafes"},{"gaps":["sem_reservas","sem_whatsapp","sem_facebook_pixel"],"name":"Casadacidade","lat":37.7426078,"category":"alojamento","score":52,"has_analytics":true,"lng":-25.6712729,"municipality":"Sao Miguel, Acores","has_ssl":true,"has_website":true,"id":500,"has_booking":false,"is_mobile_friendly":true,"status":"analisado","has_facebook_pixel":false,"nicho":"hoteis"},{"gaps":["sem_reservas","sem_whatsapp","sem_facebook_pixel"],"name":"Clipper","lat":38.528568,"category":"restaurantes","score":52,"has_analytics":true,"lng":-28.6267072,"municipality":"Faial, Acores","has_ssl":true,"has_website":true,"id":1132,"has_booking":false,"is_mobile_friendly":true,"status":"analisado","has_facebook_pixel":false,"nicho":"restaurantes"},{"gaps":["sem_reservas","sem_whatsapp","sem_facebook_pixel"],"name":"Costa's Guest House (AL)","lat":37.8474929,"category":"alojamento","score":52,"has_analytics":true,"lng":-25.2364306,"municipality":"Sao Miguel, Acores","has_ssl":true,"has_website":true,"id":630,"has_booking":false,"is_mobile_friendly":true,"status":"analisado","has_facebook_pixel":false,"nicho":"alojamento_local"},{"gaps":["sem_reservas","sem_whatsapp","sem_analytics","sem_facebook_pixel"],"name":"Fiat","lat":37.7440501,"category":"servicos","score":52,"has_analytics":false,"lng":-25.6519793,"municipality":"Sao Miguel, Acores","has_ssl":true,"has_website":true,"id":776,"has_booking":false,"is_mobile_friendly":true,"status":"analisado","has_facebook_pixel":false,"nicho":"garagens"},{"gaps":["sem_reservas","sem_whatsapp","sem_facebook_pixel"],"name":"L'Expresso","lat":37.7402867,"category":"restaurantes","score":52,"has_analytics":true,"lng":-25.6645191,"municipality":"Sao Miguel, Acores","has_ssl":true,"has_website":true,"id":250,"has_booking":false,"is_mobile_friendly":true,"status":"analisado","has_facebook_pixel":false,"nicho":"cafes"},{"gaps":["sem_reservas","sem_whatsapp","sem_facebook_pixel"],"name":"Lavrador","lat":37.8266411,"category":"restaurantes","score":52,"has_analytics":true,"lng":-25.4942412,"municipality":"Sao Miguel, Acores","has_ssl":true,"has_website":true,"id":391,"has_booking":false,"is_mobile_friendly":true,"status":"analisado","has_facebook_pixel":false,"nicho":"cafes"},{"gaps":["sem_reservas","sem_whatsapp"],"name":"Mosteiros Natural Pool House","lat":37.8964505,"category":"alojamento","score":52,"has_analytics":true,"lng":-25.8222221,"municipality":"Sao Miguel, Acores","has_ssl":true,"has_website":true,"id":668,"has_booking":false,"is_mobile_friendly":true,"status":"analisado","has_facebook_pixel":true,"nicho":"alojamento_local"},{"gaps":["sem_reservas","sem_whatsapp"],"name":"Quinta da Abelheira","lat":37.7615797,"category":"alojamento","score":52,"has_analytics":true,"lng":-25.6345773,"municipality":"Sao Miguel, Acores","has_ssl":true,"has_website":true,"id":487,"has_booking":false,"is_mobile_friendly":true,"status":"analisado","has_facebook_pixel":true,"nicho":"hoteis"},{"gaps":["sem_reservas","sem_whatsapp","sem_facebook_pixel"],"name":"Quinta dos Açores","lat":37.7576484,"category":"restaurantes","score":52,"has_analytics":true,"lng":-25.6641723,"municipality":"Sao Miguel, Acores","has_ssl":true,"has_website":true,"id":32,"has_booking":false,"is_mobile_friendly":true,"status":"analisado","has_facebook_pixel":false,"nicho":"restaurantes"},{"gaps":["sem_reservas","sem_whatsapp","sem_facebook_pixel","sem_ssl"],"name":"Snack Bar Restaurante Universo","lat":37.7149214,"category":"restaurantes","score":52,"has_analytics":true,"lng":-25.4363239,"municipality":"Sao Miguel, Acores","has_ssl":false,"has_website":true,"id":42,"has_booking":false,"is_mobile_friendly":true,"status":"analisado","has_facebook_pixel":false,"nicho":"restaurantes"},{"gaps":["sem_reservas","sem_whatsapp","sem_facebook_pixel"],"name":"Vila Rosário","lat":37.8306976,"category":"alojamento","score":52,"has_analytics":true,"lng":-25.6813415,"municipality":"Sao Miguel, Acores","has_ssl":true,"has_website":true,"id":662,"has_booking":false,"is_mobile_friendly":true,"status":"analisado","has_facebook_pixel":false,"nicho":"alojamento_local"},{"gaps":["sem_reservas","sem_whatsapp","sem_analytics","sem_facebook_pixel"],"name":"Cais 20","lat":37.7450205,"category":"restaurantes","score":51,"has_analytics":false,"lng":-25.6391234,"municipality":"Sao Miguel, Acores","has_ssl":true,"has_website":true,"id":30,"has_booking":false,"is_mobile_friendly":true,"status":"analisado","has_facebook_pixel":false,"nicho":"restaurantes"},{"gaps":["sem_reservas","sem_whatsapp","sem_facebook_pixel"],"name":"Casa Do Populo","lat":37.7484702,"category":"alojamento","score":51,"has_analytics":true,"lng":-25.604548,"municipality":"Sao Miguel, Acores","has_ssl":true,"has_website":true,"id":680,"has_booking":false,"is_mobile_friendly":true,"status":"analisado","has_facebook_pixel":false,"nicho":"alojamento_local"},{"gaps":["sem_reservas","sem_whatsapp","sem_facebook_pixel","sem_ssl"],"name":"Edifício alternativo do Centro de Saúde das Lajes do Pico","lat":38.3929468,"category":"clinicas","score":51,"has_analytics":true,"lng":-28.2517277,"municipality":"Pico, Acores","has_ssl":false,"has_website":true,"id":1280,"has_booking":false,"is_mobile_friendly":true,"status":"analisado","has_facebook_pixel":false,"nicho":"clinicas"},{"gaps":["sem_reservas","sem_whatsapp","sem_facebook_pixel"],"name":"Pingo Doce","lat":37.8311834,"category":"servicos","score":51,"has_analytics":true,"lng":-25.6872102,"municipality":"Sao Miguel, Acores","has_ssl":true,"has_website":true,"id":825,"has_booking":false,"is_mobile_friendly":true,"status":"analisado","has_facebook_pixel":false,"nicho":"supermercados"},{"gaps":["sem_reservas","sem_whatsapp","sem_facebook_pixel"],"name":"Pingo Doce","lat":37.7591453,"category":"servicos","score":51,"has_analytics":true,"lng":-25.7051058,"municipality":"Sao Miguel, Acores","has_ssl":true,"has_website":true,"id":919,"has_booking":false,"is_mobile_friendly":true,"status":"analisado","has_facebook_pixel":false,"nicho":"supermercados"},{"gaps":["sem_reservas","sem_whatsapp","sem_facebook_pixel"],"name":"Pingo Doce","lat":37.7875607,"category":"servicos","score":51,"has_analytics":true,"lng":-25.6028662,"municipality":"Sao Miguel, Acores","has_ssl":true,"has_website":true,"id":925,"has_booking":false,"is_mobile_friendly":true,"status":"analisado","has_facebook_pixel":false,"nicho":"supermercados"},{"gaps":["sem_reservas","sem_whatsapp","sem_facebook_pixel"],"name":"4 Cantos","lat":38.6536874,"category":"restaurantes","score":50,"has_analytics":true,"lng":-27.222906,"municipality":"Terceira, Acores","has_ssl":true,"has_website":true,"id":1037,"has_booking":false,"is_mobile_friendly":true,"status":"analisado","has_facebook_pixel":false,"nicho":"cafes"},{"gaps":["sem_reservas","sem_whatsapp","sem_analytics","sem_facebook_pixel","sem_mobile"],"name":"A Merenda","lat":37.8225651,"category":"restaurantes","score":50,"has_analytics":false,"lng":-25.5196738,"municipality":"Sao Miguel, Acores","has_ssl":true,"has_website":true,"id":315,"has_booking":false,"is_mobile_friendly":false,"status":"analisado","has_facebook_pixel":false,"nicho":"cafes"},{"gaps":["sem_reservas","sem_whatsapp","sem_analytics","sem_facebook_pixel","sem_mobile"],"name":"A Tasca","lat":37.7410003,"category":"restaurantes","score":50,"has_analytics":false,"lng":-25.6674158,"municipality":"Sao Miguel, Acores","has_ssl":true,"has_website":true,"id":56,"has_booking":false,"is_mobile_friendly":false,"status":"analisado","has_facebook_pixel":false,"nicho":"restaurantes"},{"gaps":["sem_reservas","sem_whatsapp","sem_analytics","sem_facebook_pixel","sem_mobile"],"name":"A familia","lat":37.8184785,"category":"restaurantes","score":50,"has_analytics":false,"lng":-25.5314158,"municipality":"Sao Miguel, Acores","has_ssl":true,"has_website":true,"id":49,"has_booking":false,"is_mobile_friendly":false,"status":"analisado","has_facebook_pixel":false,"nicho":"restaurantes"},{"gaps":["sem_reservas","sem_whatsapp","sem_analytics","sem_facebook_pixel"],"name":"Adega Açoriana","lat":38.4769804,"category":"restaurantes","score":50,"has_analytics":false,"lng":-28.2049169,"municipality":"Pico, Acores","has_ssl":true,"has_website":true,"id":1219,"has_booking":false,"is_mobile_friendly":true,"status":"analisado","has_facebook_pixel":false,"nicho":"restaurantes"},{"gaps":["sem_reservas","sem_whatsapp","sem_analytics","sem_facebook_pixel"],"name":"Afropico","lat":38.4340857,"category":"restaurantes","score":50,"has_analytics":false,"lng":-28.4557922,"municipality":"Pico, Acores","has_ssl":true,"has_website":true,"id":1218,"has_booking":false,"is_mobile_friendly":true,"status":"analisado","has_facebook_pixel":false,"nicho":"restaurantes"},{"gaps":["sem_reservas","sem_whatsapp","sem_analytics","sem_facebook_pixel","sem_mobile"],"name":"Aldeia da Fonte","lat":38.4131591,"category":"alojamento","score":50,"has_analytics":false,"lng":-28.2833321,"municipality":"Pico, Acores","has_ssl":true,"has_website":true,"id":1277,"has_booking":false,"is_mobile_friendly":false,"status":"analisado","has_facebook_pixel":false,"nicho":"hoteis"},{"gaps":["sem_reservas","sem_whatsapp","sem_analytics","sem_facebook_pixel","sem_mobile"],"name":"Alianca","lat":37.7390522,"category":"restaurantes","score":50,"has_analytics":false,"lng":-25.6695192,"municipality":"Sao Miguel, Acores","has_ssl":true,"has_website":true,"id":95,"has_booking":false,"is_mobile_friendly":false,"status":"analisado","has_facebook_pixel":false,"nicho":"restaurantes"},{"gaps":["sem_reservas","sem_whatsapp","sem_analytics","sem_facebook_pixel","sem_mobile"],"name":"Alma Latina","lat":37.7424895,"category":"restaurantes","score":50,"has_analytics":false,"lng":-25.5765602,"municipality":"Sao Miguel, Acores","has_ssl":true,"has_website":true,"id":81,"has_booking":false,"is_mobile_friendly":false,"status":"analisado","has_facebook_pixel":false,"nicho":"restaurantes"},{"gaps":["sem_reservas","sem_whatsapp","sem_analytics","sem_facebook_pixel","sem_mobile"],"name":"Alto Sé","lat":38.6557913,"category":"restaurantes","score":50,"has_analytics":false,"lng":-27.2229825,"municipality":"Terceira, Acores","has_ssl":true,"has_website":true,"id":1038,"has_booking":false,"is_mobile_friendly":false,"status":"analisado","has_facebook_pixel":false,"nicho":"cafes"},{"gaps":["sem_reservas","sem_whatsapp","sem_analytics","sem_facebook_pixel"],"name":"Alvarenga House","lat":37.833357,"category":"alojamento","score":50,"has_analytics":false,"lng":-25.3896335,"municipality":"Sao Miguel, Acores","has_ssl":true,"has_website":true,"id":670,"has_booking":false,"is_mobile_friendly":true,"status":"analisado","has_facebook_pixel":false,"nicho":"alojamento_local"},{"gaps":["sem_reservas","sem_whatsapp","sem_analytics","sem_facebook_pixel","sem_mobile"],"name":"Angra Central Hotel","lat":38.6559509,"category":"alojamento","score":50,"has_analytics":false,"lng":-27.2238128,"municipality":"Terceira, Acores","has_ssl":true,"has_website":true,"id":1073,"has_booking":false,"is_mobile_friendly":false,"status":"analisado","has_facebook_pixel":false,"nicho":"hoteis"},{"gaps":["sem_reservas","sem_whatsapp","sem_analytics","sem_facebook_pixel"],"name":"Angra Marina Hotel & Spa 5*","lat":38.6528976,"category":"alojamento","score":50,"has_analytics":false,"lng":-27.2151893,"municipality":"Terceira, Acores","has_ssl":true,"has_website":true,"id":1082,"has_booking":false,"is_mobile_friendly":true,"status":"analisado","has_facebook_pixel":false,"nicho":"hoteis"},{"gaps":["sem_reservas","sem_whatsapp","sem_analytics","sem_facebook_pixel","sem_ssl","sem_mobile"],"name":"AquaFit - Health & Fitness Club","lat":37.7418842,"category":"ginasios","score":50,"has_analytics":false,"lng":-25.573561,"municipality":"Sao Miguel, Acores","has_ssl":false,"has_website":true,"id":770,"has_booking":false,"is_mobile_friendly":false,"status":"analisado","has_facebook_pixel":false,"nicho":"ginasios"},{"gaps":["sem_reservas","sem_whatsapp","sem_analytics","sem_facebook_pixel"],"name":"Arriba","lat":37.7389976,"category":"restaurantes","score":50,"has_analytics":false,"lng":-25.6702683,"municipality":"Sao Miguel, Acores","has_ssl":true,"has_website":true,"id":4,"has_booking":false,"is_mobile_friendly":true,"status":"analisado","has_facebook_pixel":false,"nicho":"restaurantes"},{"gaps":["sem_reservas","sem_whatsapp","sem_analytics","sem_facebook_pixel"],"name":"Azor Rock Café","lat":37.7405616,"category":"restaurantes","score":50,"has_analytics":false,"lng":-25.6669698,"municipality":"Sao Miguel, Acores","has_ssl":true,"has_website":true,"id":428,"has_booking":false,"is_mobile_friendly":true,"status":"analisado","has_facebook_pixel":false,"nicho":"bares"},{"gaps":["sem_reservas","sem_whatsapp","sem_analytics","sem_facebook_pixel","sem_mobile"],"name":"Azores Angra Garden","lat":38.6563426,"category":"alojamento","score":50,"has_analytics":false,"lng":-27.2183675,"municipality":"Terceira, Acores","has_ssl":true,"has_website":true,"id":1077,"has_booking":false,"is_mobile_friendly":false,"status":"analisado","has_facebook_pixel":false,"nicho":"hoteis"},{"gaps":["sem_reservas","sem_whatsapp","sem_analytics","sem_facebook_pixel","sem_mobile"],"name":"Bar Loja","lat":37.7536017,"category":"restaurantes","score":50,"has_analytics":false,"lng":-25.2034746,"municipality":"Sao Miguel, Acores","has_ssl":true,"has_website":true,"id":469,"has_booking":false,"is_mobile_friendly":false,"status":"analisado","has_facebook_pixel":false,"nicho":"bares"},{"gaps":["sem_reservas","sem_whatsapp","sem_analytics","sem_facebook_pixel"],"name":"Barata","lat":37.7424375,"category":"restaurantes","score":50,"has_analytics":false,"lng":-25.5764535,"municipality":"Sao Miguel, Acores","has_ssl":true,"has_website":true,"id":317,"has_booking":false,"is_mobile_friendly":true,"status":"analisado","has_facebook_pixel":false,"nicho":"cafes"},{"gaps":["sem_reservas","sem_whatsapp","sem_analytics","sem_facebook_pixel"],"name":"Beach Bar","lat":37.8893706,"category":"restaurantes","score":50,"has_analytics":false,"lng":-25.8224109,"municipality":"Sao Miguel, Acores","has_ssl":true,"has_website":true,"id":444,"has_booking":false,"is_mobile_friendly":true,"status":"analisado","has_facebook_pixel":false,"nicho":"bares"},{"gaps":["sem_reservas","sem_whatsapp","sem_analytics","sem_facebook_pixel","sem_mobile"],"name":"Beach Bar & Grill","lat":37.751805,"category":"restaurantes","score":50,"has_analytics":false,"lng":-25.6261454,"municipality":"Sao Miguel, Acores","has_ssl":true,"has_website":true,"id":28,"has_booking":false,"is_mobile_friendly":false,"status":"analisado","has_facebook_pixel":false,"nicho":"restaurantes"},{"gaps":["sem_reservas","sem_whatsapp","sem_analytics","sem_facebook_pixel","sem_mobile"],"name":"Beirão","lat":37.8868697,"category":"restaurantes","score":50,"has_analytics":false,"lng":-25.7390234,"municipality":"Sao Miguel, Acores","has_ssl":true,"has_website":true,"id":286,"has_booking":false,"is_mobile_friendly":false,"status":"analisado","has_facebook_pixel":false,"nicho":"cafes"},{"gaps":["sem_reservas","sem_whatsapp","sem_analytics","sem_facebook_pixel","sem_mobile"],"name":"Bella Itália","lat":37.7404094,"category":"restaurantes","score":50,"has_analytics":false,"lng":-25.6671224,"municipality":"Sao Miguel, Acores","has_ssl":true,"has_website":true,"id":258,"has_booking":false,"is_mobile_friendly":false,"status":"analisado","has_facebook_pixel":false,"nicho":"cafes"},{"gaps":["sem_reservas","sem_whatsapp","sem_analytics","sem_facebook_pixel"],"name":"Bermudiana","lat":37.7203094,"category":"restaurantes","score":50,"has_analytics":false,"lng":-25.5109186,"municipality":"Sao Miguel, Acores","has_ssl":true,"has_website":true,"id":379,"has_booking":false,"is_mobile_friendly":true,"status":"analisado","has_facebook_pixel":false,"nicho":"cafes"},{"gaps":["sem_reservas","sem_whatsapp","sem_analytics","sem_facebook_pixel","sem_mobile"],"name":"Big21","lat":37.7411908,"category":"restaurantes","score":50,"has_analytics":false,"lng":-25.663429,"municipality":"Sao Miguel, Acores","has_ssl":true,"has_website":true,"id":87,"has_booking":false,"is_mobile_friendly":false,"status":"analisado","has_facebook_pixel":false,"nicho":"restaurantes"},{"gaps":["sem_reservas","sem_whatsapp","sem_analytics","sem_facebook_pixel"],"name":"Blues Bar","lat":37.7518622,"category":"restaurantes","score":50,"has_analytics":false,"lng":-25.6258704,"municipality":"Sao Miguel, Acores","has_ssl":true,"has_website":true,"id":272,"has_booking":false,"is_mobile_friendly":true,"status":"analisado","has_facebook_pixel":false,"nicho":"cafes"},{"gaps":["sem_reservas","sem_whatsapp","sem_analytics","sem_facebook_pixel","sem_mobile"],"name":"Boavista","lat":37.7205445,"category":"servicos","score":50,"has_analytics":false,"lng":-25.5133871,"municipality":"Sao Miguel, Acores","has_ssl":true,"has_website":true,"id":921,"has_booking":false,"is_mobile_friendly":false,"status":"analisado","has_facebook_pixel":false,"nicho":"supermercados"},{"gaps":["sem_reservas","sem_whatsapp","sem_analytics","sem_facebook_pixel","sem_ssl","sem_mobile"],"name":"Brasileiro Pizza","lat":38.6602757,"category":"restaurantes","score":50,"has_analytics":false,"lng":-27.2053627,"municipality":"Terceira, Acores","has_ssl":false,"has_website":true,"id":945,"has_booking":false,"is_mobile_friendly":false,"status":"analisado","has_facebook_pixel":false,"nicho":"restaurantes"},{"gaps":["sem_reservas","sem_whatsapp","sem_analytics","sem_facebook_pixel","sem_mobile"],"name":"Bulhões","lat":37.8306315,"category":"restaurantes","score":50,"has_analytics":false,"lng":-25.3523377,"municipality":"Sao Miguel, Acores","has_ssl":true,"has_website":true,"id":361,"has_booking":false,"is_mobile_friendly":false,"status":"analisado","has_facebook_pixel":false,"nicho":"cafes"},{"gaps":["sem_reservas","sem_whatsapp","sem_analytics","sem_facebook_pixel","sem_mobile"],"name":"Burgundy","lat":37.7400741,"category":"restaurantes","score":50,"has_analytics":false,"lng":-25.668821,"municipality":"Sao Miguel, Acores","has_ssl":true,"has_website":true,"id":89,"has_booking":false,"is_mobile_friendly":false,"status":"analisado","has_facebook_pixel":false,"nicho":"restaurantes"},{"gaps":["sem_reservas","sem_whatsapp","sem_analytics","sem_facebook_pixel"],"name":"C Bistrô","lat":38.5229717,"category":"restaurantes","score":50,"has_analytics":false,"lng":-28.3190011,"municipality":"Pico, Acores","has_ssl":true,"has_website":true,"id":1252,"has_booking":false,"is_mobile_friendly":true,"status":"analisado","has_facebook_pixel":false,"nicho":"restaurantes"},{"gaps":["sem_reservas","sem_whatsapp","sem_analytics","sem_facebook_pixel"],"name":"Cachalote Bar","lat":37.7460447,"category":"restaurantes","score":50,"has_analytics":false,"lng":-25.2463225,"municipality":"Sao Miguel, Acores","has_ssl":true,"has_website":true,"id":466,"has_booking":false,"is_mobile_friendly":true,"status":"analisado","has_facebook_pixel":false,"nicho":"bares"},{"gaps":["sem_reservas","sem_whatsapp","sem_analytics","sem_facebook_pixel","sem_mobile"],"name":"Café","lat":37.7684488,"category":"restaurantes","score":50,"has_analytics":false,"lng":-25.7058518,"municipality":"Sao Miguel, Acores","has_ssl":true,"has_website":true,"id":290,"has_booking":false,"is_mobile_friendly":false,"status":"analisado","has_facebook_pixel":false,"nicho":"cafes"},{"gaps":["sem_reservas","sem_whatsapp","sem_analytics","sem_facebook_pixel"],"name":"Café Calhetense","lat":38.6018113,"category":"restaurantes","score":50,"has_analytics":false,"lng":-28.0220069,"municipality":"Sao Jorge, Acores","has_ssl":true,"has_website":true,"id":1295,"has_booking":false,"is_mobile_friendly":true,"status":"analisado","has_facebook_pixel":false,"nicho":"restaurantes"},{"gaps":["sem_reservas","sem_whatsapp","sem_analytics","sem_facebook_pixel","sem_mobile"],"name":"Café Costa","lat":37.7425705,"category":"restaurantes","score":50,"has_analytics":false,"lng":-25.5761231,"municipality":"Sao Miguel, Acores","has_ssl":true,"has_website":true,"id":269,"has_booking":false,"is_mobile_friendly":false,"status":"analisado","has_facebook_pixel":false,"nicho":"cafes"},{"gaps":["sem_reservas","sem_whatsapp","sem_analytics","sem_facebook_pixel","sem_mobile"],"name":"Café Dutra","lat":37.8457181,"category":"restaurantes","score":50,"has_analytics":false,"lng":-25.230645,"municipality":"Sao Miguel, Acores","has_ssl":true,"has_website":true,"id":278,"has_booking":false,"is_mobile_friendly":false,"status":"analisado","has_facebook_pixel":false,"nicho":"cafes"},{"gaps":["sem_reservas","sem_whatsapp","sem_analytics","sem_facebook_pixel","sem_mobile"],"name":"Café Félix","lat":37.7428145,"category":"restaurantes","score":50,"has_analytics":false,"lng":-25.6819686,"municipality":"Sao Miguel, Acores","has_ssl":true,"has_website":true,"id":303,"has_booking":false,"is_mobile_friendly":false,"status":"analisado","has_facebook_pixel":false,"nicho":"cafes"},{"gaps":["sem_reservas","sem_whatsapp","sem_analytics","sem_facebook_pixel","sem_mobile"],"name":"Café Girassol","lat":37.844564,"category":"restaurantes","score":50,"has_analytics":false,"lng":-25.2995383,"municipality":"Sao Miguel, Acores","has_ssl":true,"has_website":true,"id":305,"has_booking":false,"is_mobile_friendly":false,"status":"analisado","has_facebook_pixel":false,"nicho":"cafes"},{"gaps":["sem_reservas","sem_whatsapp","sem_analytics","sem_facebook_pixel","sem_mobile"],"name":"Café Juventude","lat":37.7555976,"category":"restaurantes","score":50,"has_analytics":false,"lng":-25.6985086,"municipality":"Sao Miguel, Acores","has_ssl":true,"has_website":true,"id":274,"has_booking":false,"is_mobile_friendly":false,"status":"analisado","has_facebook_pixel":false,"nicho":"cafes"},{"gaps":["sem_reservas","sem_whatsapp","sem_analytics","sem_facebook_pixel","sem_mobile"],"name":"Café Royal","lat":37.7398282,"category":"restaurantes","score":50,"has_analytics":false,"lng":-25.6676691,"municipality":"Sao Miguel, Acores","has_ssl":true,"has_website":true,"id":280,"has_booking":false,"is_mobile_friendly":false,"status":"analisado","has_facebook_pixel":false,"nicho":"cafes"},{"gaps":["sem_reservas","sem_whatsapp","sem_analytics","sem_facebook_pixel","sem_ssl"],"name":"Café Volta","lat":38.5497245,"category":"restaurantes","score":50,"has_analytics":false,"lng":-28.6296717,"municipality":"Faial, Acores","has_ssl":false,"has_website":true,"id":1179,"has_booking":false,"is_mobile_friendly":true,"status":"analisado","has_facebook_pixel":false,"nicho":"cafes"},{"gaps":["sem_reservas","sem_whatsapp","sem_analytics","sem_facebook_pixel"],"name":"Café da Ponte","lat":38.7784776,"category":"restaurantes","score":50,"has_analytics":false,"lng":-27.16961,"municipality":"Terceira, Acores","has_ssl":true,"has_website":true,"id":1046,"has_booking":false,"is_mobile_friendly":true,"status":"analisado","has_facebook_pixel":false,"nicho":"cafes"},{"gaps":["sem_reservas","sem_whatsapp","sem_analytics","sem_facebook_pixel"],"name":"Café e Restaurante \"O Ocidental\"","lat":38.529928,"category":"restaurantes","score":50,"has_analytics":false,"lng":-28.6326143,"municipality":"Faial, Acores","has_ssl":true,"has_website":true,"id":1125,"has_booking":false,"is_mobile_friendly":true,"status":"analisado","has_facebook_pixel":false,"nicho":"restaurantes"},{"gaps":["sem_reservas","sem_whatsapp","sem_analytics","sem_facebook_pixel","sem_mobile"],"name":"Cais da Sardinha","lat":37.7374775,"category":"restaurantes","score":50,"has_analytics":false,"lng":-25.6703761,"municipality":"Sao Miguel, Acores","has_ssl":true,"has_website":true,"id":460,"has_booking":false,"is_mobile_friendly":false,"status":"analisado","has_facebook_pixel":false,"nicho":"bares"},{"gaps":["sem_reservas","sem_whatsapp","sem_analytics","sem_facebook_pixel","sem_mobile"],"name":"Cantinho Da Mãe","lat":37.7466428,"category":"restaurantes","score":50,"has_analytics":false,"lng":-25.6684724,"municipality":"Sao Miguel, Acores","has_ssl":true,"has_website":true,"id":86,"has_booking":false,"is_mobile_friendly":false,"status":"analisado","has_facebook_pixel":false,"nicho":"restaurantes"},{"gaps":["sem_reservas","sem_whatsapp","sem_analytics","sem_facebook_pixel"],"name":"Car repair","lat":38.6722269,"category":"servicos","score":50,"has_analytics":false,"lng":-27.278774,"municipality":"Terceira, Acores","has_ssl":true,"has_website":true,"id":1111,"has_booking":false,"is_mobile_friendly":true,"status":"analisado","has_facebook_pixel":false,"nicho":"garagens"},{"gaps":["sem_reservas","sem_whatsapp","sem_analytics","sem_facebook_pixel"],"name":"Car repair","lat":38.671678,"category":"servicos","score":50,"has_analytics":false,"lng":-27.278999,"municipality":"Terceira, Acores","has_ssl":true,"has_website":true,"id":1112,"has_booking":false,"is_mobile_friendly":true,"status":"analisado","has_facebook_pixel":false,"nicho":"garagens"},{"gaps":["sem_reservas","sem_whatsapp","sem_analytics","sem_facebook_pixel"],"name":"Caracol Torrié Cafeé","lat":38.4341365,"category":"restaurantes","score":50,"has_analytics":false,"lng":-28.4564788,"municipality":"Pico, Acores","has_ssl":true,"has_website":true,"id":1216,"has_booking":false,"is_mobile_friendly":true,"status":"analisado","has_facebook_pixel":false,"nicho":"restaurantes"},{"gaps":["sem_reservas","sem_whatsapp","sem_analytics","sem_facebook_pixel"],"name":"Casa C'Alma","lat":37.8506873,"category":"alojamento","score":50,"has_analytics":false,"lng":-25.2569642,"municipality":"Sao Miguel, Acores","has_ssl":true,"has_website":true,"id":615,"has_booking":false,"is_mobile_friendly":true,"status":"analisado","has_facebook_pixel":false,"nicho":"alojamento_local"},{"gaps":["sem_reservas","sem_whatsapp","sem_analytics","sem_facebook_pixel","sem_ssl"],"name":"Casa Cheia","lat":37.7468684,"category":"servicos","score":50,"has_analytics":false,"lng":-25.246769,"municipality":"Sao Miguel, Acores","has_ssl":false,"has_website":true,"id":836,"has_booking":false,"is_mobile_friendly":true,"status":"analisado","has_facebook_pixel":false,"nicho":"supermercados"},{"gaps":["sem_reservas","sem_whatsapp","sem_analytics","sem_facebook_pixel","sem_ssl"],"name":"Casa Cheia","lat":37.8448852,"category":"servicos","score":50,"has_analytics":false,"lng":-25.1633062,"municipality":"Sao Miguel, Acores","has_ssl":false,"has_website":true,"id":845,"has_booking":false,"is_mobile_friendly":true,"status":"analisado","has_facebook_pixel":false,"nicho":"supermercados"},{"gaps":["sem_reservas","sem_whatsapp","sem_analytics","sem_facebook_pixel","sem_ssl"],"name":"Casa Cheia","lat":37.831351,"category":"servicos","score":50,"has_analytics":false,"lng":-25.146284,"municipality":"Sao Miguel, Acores","has_ssl":false,"has_website":true,"id":868,"has_booking":false,"is_mobile_friendly":true,"status":"analisado","has_facebook_pixel":false,"nicho":"supermercados"},{"gaps":["sem_reservas","sem_whatsapp","sem_analytics","sem_facebook_pixel"],"name":"Casa Cheia","lat":37.73512,"category":"servicos","score":50,"has_analytics":false,"lng":-25.6772605,"municipality":"Sao Miguel, Acores","has_ssl":true,"has_website":true,"id":900,"has_booking":false,"is_mobile_friendly":true,"status":"analisado","has_facebook_pixel":false,"nicho":"supermercados"},{"gaps":["sem_reservas","sem_whatsapp","sem_analytics","sem_facebook_pixel","sem_ssl"],"name":"Casa Felicitas","lat":37.8997787,"category":"alojamento","score":50,"has_analytics":false,"lng":-25.7567149,"municipality":"Sao Miguel, Acores","has_ssl":false,"has_website":true,"id":550,"has_booking":false,"is_mobile_friendly":true,"status":"analisado","has_facebook_pixel":false,"nicho":"alojamento_local"},{"gaps":["sem_reservas","sem_whatsapp","sem_analytics","sem_facebook_pixel"],"name":"Casa Mira Mar (AL)","lat":37.8453212,"category":"alojamento","score":50,"has_analytics":false,"lng":-25.2296335,"municipality":"Sao Miguel, Acores","has_ssl":true,"has_website":true,"id":582,"has_booking":false,"is_mobile_friendly":true,"status":"analisado","has_facebook_pixel":false,"nicho":"alojamento_local"},{"gaps":["sem_reservas","sem_whatsapp","sem_analytics","sem_facebook_pixel"],"name":"Casa da Burra (AL)","lat":37.8493996,"category":"alojamento","score":50,"has_analytics":false,"lng":-25.1992461,"municipality":"Sao Miguel, Acores","has_ssl":true,"has_website":true,"id":587,"has_booking":false,"is_mobile_friendly":true,"status":"analisado","has_facebook_pixel":false,"nicho":"alojamento_local"},{"gaps":["sem_reservas","sem_whatsapp","sem_analytics","sem_facebook_pixel"],"name":"Casa das Arcadas","lat":37.7405775,"category":"alojamento","score":50,"has_analytics":false,"lng":-25.6662067,"municipality":"Sao Miguel, Acores","has_ssl":true,"has_website":true,"id":659,"has_booking":false,"is_mobile_friendly":true,"status":"analisado","has_facebook_pixel":false,"nicho":"alojamento_local"},{"gaps":["sem_reservas","sem_whatsapp","sem_analytics","sem_facebook_pixel"],"name":"Casa das Dias","lat":37.7138047,"category":"alojamento","score":50,"has_analytics":false,"lng":-25.438952,"municipality":"Sao Miguel, Acores","has_ssl":true,"has_website":true,"id":596,"has_booking":false,"is_mobile_friendly":true,"status":"analisado","has_facebook_pixel":false,"nicho":"alojamento_local"},{"gaps":["sem_reservas","sem_whatsapp","sem_analytics","sem_facebook_pixel"],"name":"Casa do Mercado","lat":37.7410428,"category":"alojamento","score":50,"has_analytics":false,"lng":-25.6648033,"municipality":"Sao Miguel, Acores","has_ssl":true,"has_website":true,"id":505,"has_booking":false,"is_mobile_friendly":true,"status":"analisado","has_facebook_pixel":false,"nicho":"hoteis"},{"gaps":["sem_reservas","sem_whatsapp","sem_analytics","sem_facebook_pixel"],"name":"Casa do Outeiro (TER/CC)","lat":37.8500907,"category":"alojamento","score":50,"has_analytics":false,"lng":-25.1939899,"municipality":"Sao Miguel, Acores","has_ssl":true,"has_website":true,"id":586,"has_booking":false,"is_mobile_friendly":true,"status":"analisado","has_facebook_pixel":false,"nicho":"alojamento_local"},{"gaps":["sem_reservas","sem_whatsapp","sem_analytics","sem_facebook_pixel","sem_mobile"],"name":"Cascara","lat":37.7393125,"category":"restaurantes","score":50,"has_analytics":false,"lng":-25.6728077,"municipality":"Sao Miguel, Acores","has_ssl":true,"has_website":true,"id":385,"has_booking":false,"is_mobile_friendly":false,"status":"analisado","has_facebook_pixel":false,"nicho":"cafes"},{"gaps":["sem_reservas","sem_whatsapp","sem_analytics","sem_facebook_pixel"],"name":"Cento Medico","lat":37.743733,"category":"clinicas","score":50,"has_analytics":false,"lng":-25.6630578,"municipality":"Sao Miguel, Acores","has_ssl":true,"has_website":true,"id":735,"has_booking":false,"is_mobile_friendly":true,"status":"analisado","has_facebook_pixel":false,"nicho":"medicos"},{"gaps":["sem_reservas","sem_whatsapp","sem_analytics","sem_facebook_pixel","sem_mobile"],"name":"Central Garden","lat":37.7483832,"category":"restaurantes","score":50,"has_analytics":false,"lng":-25.2445836,"municipality":"Sao Miguel, Acores","has_ssl":true,"has_website":true,"id":74,"has_booking":false,"is_mobile_friendly":false,"status":"analisado","has_facebook_pixel":false,"nicho":"restaurantes"},{"gaps":["sem_reservas","sem_whatsapp","sem_analytics","sem_facebook_pixel"],"name":"Centro de Desenvolvimento Infanto-Juvenil dos Açores","lat":38.5305056,"category":"clinicas","score":50,"has_analytics":false,"lng":-28.634852,"municipality":"Faial, Acores","has_ssl":true,"has_website":true,"id":1192,"has_booking":false,"is_mobile_friendly":true,"status":"analisado","has_facebook_pixel":false,"nicho":"clinicas"},{"gaps":["sem_reservas","sem_whatsapp","sem_analytics","sem_facebook_pixel"],"name":"Centro de Saúde da Praia da Vitória","lat":38.7291989,"category":"clinicas","score":50,"has_analytics":false,"lng":-27.0653772,"municipality":"Terceira, Acores","has_ssl":true,"has_website":true,"id":1094,"has_booking":false,"is_mobile_friendly":true,"status":"analisado","has_facebook_pixel":false,"nicho":"clinicas"},{"gaps":["sem_reservas","sem_whatsapp","sem_analytics","sem_facebook_pixel"],"name":"Centro de Saúde das Furnas","lat":37.7765359,"category":"clinicas","score":50,"has_analytics":false,"lng":-25.3139614,"municipality":"Sao Miguel, Acores","has_ssl":true,"has_website":true,"id":686,"has_booking":false,"is_mobile_friendly":true,"status":"analisado","has_facebook_pixel":false,"nicho":"clinicas"},{"gaps":["sem_reservas","sem_whatsapp","sem_analytics","sem_facebook_pixel"],"name":"Centro de Saúde de Angra do Heroísmo","lat":38.661818,"category":"clinicas","score":50,"has_analytics":false,"lng":-27.2129462,"municipality":"Terceira, Acores","has_ssl":true,"has_website":true,"id":1091,"has_booking":false,"is_mobile_friendly":true,"status":"analisado","has_facebook_pixel":false,"nicho":"clinicas"},{"gaps":["sem_reservas","sem_whatsapp","sem_analytics","sem_facebook_pixel"],"name":"Charlie's Place","lat":38.6820031,"category":"restaurantes","score":50,"has_analytics":false,"lng":-28.2096114,"municipality":"Sao Jorge, Acores","has_ssl":true,"has_website":true,"id":1314,"has_booking":false,"is_mobile_friendly":true,"status":"analisado","has_facebook_pixel":false,"nicho":"cafes"},{"gaps":["sem_reservas","sem_whatsapp","sem_analytics","sem_facebook_pixel","sem_mobile"],"name":"Claudia","lat":37.8331999,"category":"saloes","score":50,"has_analytics":false,"lng":-25.3879116,"municipality":"Sao Miguel, Acores","has_ssl":true,"has_website":true,"id":758,"has_booking":false,"is_mobile_friendly":false,"status":"analisado","has_facebook_pixel":false,"nicho":"cabeleireiros"},{"gaps":["sem_reservas","sem_whatsapp","sem_analytics","sem_facebook_pixel"],"name":"Corsicada","lat":37.7401584,"category":"restaurantes","score":50,"has_analytics":false,"lng":-25.6654981,"municipality":"Sao Miguel, Acores","has_ssl":true,"has_website":true,"id":459,"has_booking":false,"is_mobile_friendly":true,"status":"analisado","has_facebook_pixel":false,"nicho":"bares"},{"gaps":["sem_reservas","sem_whatsapp","sem_analytics","sem_facebook_pixel"],"name":"Costa do Sol","lat":39.0871138,"category":"restaurantes","score":50,"has_analytics":false,"lng":-28.0087299,"municipality":"Graciosa, Acores","has_ssl":true,"has_website":true,"id":1335,"has_booking":false,"is_mobile_friendly":true,"status":"analisado","has_facebook_pixel":false,"nicho":"restaurantes"},{"gaps":["sem_reservas","sem_whatsapp","sem_analytics","sem_facebook_pixel"],"name":"Country Side Relax House (AL)","lat":37.8588426,"category":"alojamento","score":50,"has_analytics":false,"lng":-25.2638088,"municipality":"Sao Miguel, Acores","has_ssl":true,"has_website":true,"id":573,"has_booking":false,"is_mobile_friendly":true,"status":"analisado","has_facebook_pixel":false,"nicho":"alojamento_local"},{"gaps":["sem_reservas","sem_whatsapp","sem_facebook_pixel"],"name":"Dona Pizza","lat":38.6571673,"category":"restaurantes","score":50,"has_analytics":true,"lng":-27.2144111,"municipality":"Terceira, Acores","has_ssl":true,"has_website":true,"id":1010,"has_booking":false,"is_mobile_friendly":true,"status":"analisado","has_facebook_pixel":false,"nicho":"restaurantes"},{"gaps":["sem_reservas","sem_whatsapp"],"name":"DoubleTree by Hilton Lagoa Azores","lat":37.7493634,"category":"alojamento","score":50,"has_analytics":true,"lng":-25.5810235,"municipality":"Sao Miguel, Acores","has_ssl":true,"has_website":true,"id":540,"has_booking":false,"is_mobile_friendly":true,"status":"analisado","has_facebook_pixel":true,"nicho":"hoteis"},{"gaps":["sem_reservas","sem_whatsapp","sem_analytics","sem_facebook_pixel","sem_mobile"],"name":"Eduardo","lat":38.7909257,"category":"servicos","score":50,"has_analytics":false,"lng":-27.2210532,"municipality":"Terceira, Acores","has_ssl":true,"has_website":true,"id":1117,"has_booking":false,"is_mobile_friendly":false,"status":"analisado","has_facebook_pixel":false,"nicho":"garagens"},{"gaps":["sem_reservas","sem_whatsapp","sem_analytics","sem_facebook_pixel","sem_mobile"],"name":"Eh Pá","lat":37.8988687,"category":"restaurantes","score":50,"has_analytics":false,"lng":-25.7637239,"municipality":"Sao Miguel, Acores","has_ssl":true,"has_website":true,"id":182,"has_booking":false,"is_mobile_friendly":false,"status":"analisado","has_facebook_pixel":false,"nicho":"restaurantes"},{"gaps":["sem_reservas","sem_whatsapp","sem_analytics","sem_facebook_pixel"],"name":"Energie Bar","lat":37.8451371,"category":"restaurantes","score":50,"has_analytics":false,"lng":-25.1612649,"municipality":"Sao Miguel, Acores","has_ssl":true,"has_website":true,"id":439,"has_booking":false,"is_mobile_friendly":true,"status":"analisado","has_facebook_pixel":false,"nicho":"bares"},{"gaps":["sem_reservas","sem_whatsapp","sem_analytics","sem_facebook_pixel","sem_mobile"],"name":"Farmácia da Ribeirinha","lat":37.8268057,"category":"clinicas","score":50,"has_analytics":false,"lng":-25.5004765,"municipality":"Sao Miguel, Acores","has_ssl":true,"has_website":true,"id":719,"has_booking":false,"is_mobile_friendly":false,"status":"analisado","has_facebook_pixel":false,"nicho":"farmacias"},{"gaps":["sem_reservas","sem_whatsapp","sem_analytics","sem_facebook_pixel"],"name":"Font Cousine","lat":38.4134463,"category":"restaurantes","score":50,"has_analytics":false,"lng":-28.2830516,"municipality":"Pico, Acores","has_ssl":true,"has_website":true,"id":1215,"has_booking":false,"is_mobile_friendly":true,"status":"analisado","has_facebook_pixel":false,"nicho":"restaurantes"},{"gaps":["sem_reservas","sem_whatsapp","sem_analytics","sem_facebook_pixel","sem_mobile"],"name":"Forte Terrace","lat":37.7488997,"category":"restaurantes","score":50,"has_analytics":false,"lng":-25.6318726,"municipality":"Sao Miguel, Acores","has_ssl":true,"has_website":true,"id":183,"has_booking":false,"is_mobile_friendly":false,"status":"analisado","has_facebook_pixel":false,"nicho":"restaurantes"},{"gaps":["sem_reservas","sem_whatsapp","sem_analytics","sem_facebook_pixel"],"name":"Fumeiro São João","lat":38.6551787,"category":"restaurantes","score":50,"has_analytics":false,"lng":-27.219402,"municipality":"Terceira, Acores","has_ssl":true,"has_website":true,"id":986,"has_booking":false,"is_mobile_friendly":true,"status":"analisado","has_facebook_pixel":false,"nicho":"restaurantes"},{"gaps":["sem_reservas","sem_whatsapp","sem_analytics","sem_facebook_pixel","sem_ssl"],"name":"Furnas Lake Forest Living","lat":37.7493182,"category":"alojamento","score":50,"has_analytics":false,"lng":-25.3241721,"municipality":"Sao Miguel, Acores","has_ssl":false,"has_website":true,"id":485,"has_booking":false,"is_mobile_friendly":true,"status":"analisado","has_facebook_pixel":false,"nicho":"hoteis"},{"gaps":["sem_reservas","sem_whatsapp"],"name":"Galanta","lat":38.7544655,"category":"restaurantes","score":50,"has_analytics":true,"lng":-27.1399374,"municipality":"Terceira, Acores","has_ssl":true,"has_website":true,"id":1018,"has_booking":false,"is_mobile_friendly":true,"status":"analisado","has_facebook_pixel":true,"nicho":"restaurantes"},{"gaps":["sem_reservas","sem_whatsapp","sem_analytics","sem_facebook_pixel"],"name":"Game On","lat":37.7420818,"category":"restaurantes","score":50,"has_analytics":false,"lng":-25.6653191,"municipality":"Sao Miguel, Acores","has_ssl":true,"has_website":true,"id":383,"has_booking":false,"is_mobile_friendly":true,"status":"analisado","has_facebook_pixel":false,"nicho":"cafes"},{"gaps":["sem_reservas","sem_whatsapp","sem_analytics","sem_facebook_pixel"],"name":"Gastronomo","lat":37.7427,"category":"restaurantes","score":50,"has_analytics":false,"lng":-25.6539101,"municipality":"Sao Miguel, Acores","has_ssl":true,"has_website":true,"id":103,"has_booking":false,"is_mobile_friendly":true,"status":"analisado","has_facebook_pixel":false,"nicho":"restaurantes"},{"gaps":["sem_reservas","sem_whatsapp","sem_facebook_pixel"],"name":"Genuíno","lat":38.5263372,"category":"restaurantes","score":50,"has_analytics":true,"lng":-28.6272783,"municipality":"Faial, Acores","has_ssl":true,"has_website":true,"id":1143,"has_booking":false,"is_mobile_friendly":true,"status":"analisado","has_facebook_pixel":false,"nicho":"restaurantes"},{"gaps":["sem_reservas","sem_whatsapp","sem_analytics","sem_facebook_pixel"],"name":"Ginó - Cabeleireiro","lat":37.8332388,"category":"saloes","score":50,"has_analytics":false,"lng":-25.1456817,"municipality":"Sao Miguel, Acores","has_ssl":true,"has_website":true,"id":742,"has_booking":false,"is_mobile_friendly":true,"status":"analisado","has_facebook_pixel":false,"nicho":"cabeleireiros"},{"gaps":["sem_reservas","sem_whatsapp","sem_analytics","sem_facebook_pixel","sem_mobile"],"name":"Gorgeous House","lat":37.760759,"category":"alojamento","score":50,"has_analytics":false,"lng":-25.6545811,"municipality":"Sao Miguel, Acores","has_ssl":true,"has_website":true,"id":663,"has_booking":false,"is_mobile_friendly":false,"status":"analisado","has_facebook_pixel":false,"nicho":"alojamento_local"},{"gaps":["sem_reservas","sem_whatsapp","sem_analytics","sem_facebook_pixel"],"name":"Guest House Bella Italia","lat":37.7383004,"category":"alojamento","score":50,"has_analytics":false,"lng":-25.6725007,"municipality":"Sao Miguel, Acores","has_ssl":true,"has_website":true,"id":657,"has_booking":false,"is_mobile_friendly":true,"status":"analisado","has_facebook_pixel":false,"nicho":"alojamento_local"},{"gaps":["sem_reservas","sem_whatsapp","sem_analytics","sem_facebook_pixel"],"name":"Hotel Praia de Lobos","lat":36.955597,"category":"alojamento","score":50,"has_analytics":false,"lng":-25.1423265,"municipality":"Santa Maria, Acores","has_ssl":true,"has_website":true,"id":1364,"has_booking":false,"is_mobile_friendly":true,"status":"analisado","has_facebook_pixel":false,"nicho":"hoteis"},{"gaps":["sem_reservas","sem_whatsapp","sem_analytics","sem_facebook_pixel","sem_mobile"],"name":"Hotel Soares Neto","lat":38.6797216,"category":"alojamento","score":50,"has_analytics":false,"lng":-28.2047275,"municipality":"Sao Jorge, Acores","has_ssl":true,"has_website":true,"id":1326,"has_booking":false,"is_mobile_friendly":false,"status":"analisado","has_facebook_pixel":false,"nicho":"hoteis"},{"gaps":["sem_reservas","sem_whatsapp","sem_analytics","sem_facebook_pixel","sem_mobile"],"name":"Instituto de Belleza","lat":38.6553446,"category":"saloes","score":50,"has_analytics":false,"lng":-27.2181097,"municipality":"Terceira, Acores","has_ssl":true,"has_website":true,"id":1102,"has_booking":false,"is_mobile_friendly":false,"status":"analisado","has_facebook_pixel":false,"nicho":"cabeleireiros"},{"gaps":["sem_reservas","sem_whatsapp","sem_analytics","sem_facebook_pixel","sem_mobile"],"name":"Jewel of India","lat":37.7395897,"category":"restaurantes","score":50,"has_analytics":false,"lng":-25.6733496,"municipality":"Sao Miguel, Acores","has_ssl":true,"has_website":true,"id":180,"has_booking":false,"is_mobile_friendly":false,"status":"analisado","has_facebook_pixel":false,"nicho":"restaurantes"},{"gaps":["sem_reservas","sem_whatsapp","sem_analytics","sem_facebook_pixel","sem_mobile"],"name":"Jin Li Lai","lat":38.5296337,"category":"restaurantes","score":50,"has_analytics":false,"lng":-28.6269671,"municipality":"Faial, Acores","has_ssl":true,"has_website":true,"id":1126,"has_booking":false,"is_mobile_friendly":false,"status":"analisado","has_facebook_pixel":false,"nicho":"restaurantes"},{"gaps":["sem_reservas","sem_whatsapp","sem_analytics","sem_facebook_pixel","sem_mobile"],"name":"Jubileu","lat":37.7143351,"category":"restaurantes","score":50,"has_analytics":false,"lng":-25.515613,"municipality":"Sao Miguel, Acores","has_ssl":true,"has_website":true,"id":463,"has_booking":false,"is_mobile_friendly":false,"status":"analisado","has_facebook_pixel":false,"nicho":"bares"},{"gaps":["sem_reservas","sem_whatsapp","sem_facebook_pixel"],"name":"Já Se Sabe","lat":37.7733807,"category":"restaurantes","score":50,"has_analytics":true,"lng":-25.3160916,"municipality":"Sao Miguel, Acores","has_ssl":true,"has_website":true,"id":61,"has_booking":false,"is_mobile_friendly":true,"status":"analisado","has_facebook_pixel":false,"nicho":"restaurantes"},{"gaps":["sem_reservas","sem_whatsapp","sem_analytics","sem_facebook_pixel"],"name":"King burguer","lat":37.7727014,"category":"restaurantes","score":50,"has_analytics":false,"lng":-25.3161226,"municipality":"Sao Miguel, Acores","has_ssl":true,"has_website":true,"id":411,"has_booking":false,"is_mobile_friendly":true,"status":"analisado","has_facebook_pixel":false,"nicho":"bares"},{"gaps":["sem_reservas","sem_whatsapp","sem_analytics","sem_facebook_pixel","sem_mobile"],"name":"Lagoa Azul","lat":37.8610309,"category":"restaurantes","score":50,"has_analytics":false,"lng":-25.7942045,"municipality":"Sao Miguel, Acores","has_ssl":true,"has_website":true,"id":227,"has_booking":false,"is_mobile_friendly":false,"status":"analisado","has_facebook_pixel":false,"nicho":"restaurantes"},{"gaps":["sem_reservas","sem_whatsapp","sem_analytics","sem_facebook_pixel","sem_ssl","sem_mobile"],"name":"Lan's Pizzaria, Exotic Food & Vegetariano","lat":37.7403458,"category":"restaurantes","score":50,"has_analytics":false,"lng":-25.6696912,"municipality":"Sao Miguel, Acores","has_ssl":false,"has_website":true,"id":119,"has_booking":false,"is_mobile_friendly":false,"status":"analisado","has_facebook_pixel":false,"nicho":"restaurantes"},{"gaps":["sem_reservas","sem_whatsapp","sem_analytics","sem_facebook_pixel","sem_mobile"],"name":"Lanchonete da Cidade","lat":37.7481344,"category":"restaurantes","score":50,"has_analytics":false,"lng":-25.6650983,"municipality":"Sao Miguel, Acores","has_ssl":true,"has_website":true,"id":265,"has_booking":false,"is_mobile_friendly":false,"status":"analisado","has_facebook_pixel":false,"nicho":"cafes"},{"gaps":["sem_reservas","sem_whatsapp","sem_analytics","sem_facebook_pixel","sem_mobile"],"name":"Lanchonete da Cidade","lat":37.740499,"category":"restaurantes","score":50,"has_analytics":false,"lng":-25.6712689,"municipality":"Sao Miguel, Acores","has_ssl":true,"has_website":true,"id":267,"has_booking":false,"is_mobile_friendly":false,"status":"analisado","has_facebook_pixel":false,"nicho":"cafes"},{"gaps":["sem_reservas","sem_whatsapp","sem_analytics","sem_facebook_pixel","sem_ssl"],"name":"Lena's Home","lat":37.7425894,"category":"alojamento","score":50,"has_analytics":false,"lng":-25.6739195,"municipality":"Sao Miguel, Acores","has_ssl":false,"has_website":true,"id":673,"has_booking":false,"is_mobile_friendly":true,"status":"analisado","has_facebook_pixel":false,"nicho":"alojamento_local"},{"gaps":["sem_reservas","sem_whatsapp","sem_analytics","sem_facebook_pixel","sem_mobile"],"name":"Maciel","lat":37.8127802,"category":"saloes","score":50,"has_analytics":false,"lng":-25.5276266,"municipality":"Sao Miguel, Acores","has_ssl":true,"has_website":true,"id":743,"has_booking":false,"is_mobile_friendly":false,"status":"analisado","has_facebook_pixel":false,"nicho":"cabeleireiros"},{"gaps":["sem_reservas","sem_whatsapp","sem_analytics","sem_facebook_pixel"],"name":"Mafalda casa","lat":37.7533236,"category":"alojamento","score":50,"has_analytics":false,"lng":-25.660062,"municipality":"Sao Miguel, Acores","has_ssl":true,"has_website":true,"id":569,"has_booking":false,"is_mobile_friendly":true,"status":"analisado","has_facebook_pixel":false,"nicho":"alojamento_local"},{"gaps":["sem_reservas","sem_whatsapp","sem_analytics","sem_facebook_pixel"],"name":"Mascote","lat":37.7398731,"category":"restaurantes","score":50,"has_analytics":false,"lng":-25.6678091,"municipality":"Sao Miguel, Acores","has_ssl":true,"has_website":true,"id":137,"has_booking":false,"is_mobile_friendly":true,"status":"analisado","has_facebook_pixel":false,"nicho":"restaurantes"},{"gaps":["sem_reservas","sem_whatsapp","sem_analytics","sem_facebook_pixel"],"name":"Mercado Do Colégio","lat":37.7432017,"category":"servicos","score":50,"has_analytics":false,"lng":-25.6698342,"municipality":"Sao Miguel, Acores","has_ssl":true,"has_website":true,"id":808,"has_booking":false,"is_mobile_friendly":true,"status":"analisado","has_facebook_pixel":false,"nicho":"supermercados"},{"gaps":["sem_reservas","sem_whatsapp","sem_analytics","sem_facebook_pixel"],"name":"Mercado Negro Porta 18","lat":37.7420965,"category":"restaurantes","score":50,"has_analytics":false,"lng":-25.6652505,"municipality":"Sao Miguel, Acores","has_ssl":true,"has_website":true,"id":470,"has_booking":false,"is_mobile_friendly":true,"status":"analisado","has_facebook_pixel":false,"nicho":"bares"},{"gaps":["sem_reservas","sem_whatsapp","sem_analytics","sem_facebook_pixel"],"name":"Mercearia d'Angora","lat":38.6555414,"category":"restaurantes","score":50,"has_analytics":false,"lng":-27.2180496,"municipality":"Terceira, Acores","has_ssl":true,"has_website":true,"id":988,"has_booking":false,"is_mobile_friendly":true,"status":"analisado","has_facebook_pixel":false,"nicho":"restaurantes"},{"gaps":["sem_reservas","sem_whatsapp","sem_analytics","sem_facebook_pixel","sem_mobile"],"name":"Meu Super","lat":37.7211585,"category":"servicos","score":50,"has_analytics":false,"lng":-25.5099363,"municipality":"Sao Miguel, Acores","has_ssl":true,"has_website":true,"id":814,"has_booking":false,"is_mobile_friendly":false,"status":"analisado","has_facebook_pixel":false,"nicho":"supermercados"},{"gaps":["sem_reservas","sem_whatsapp","sem_analytics","sem_facebook_pixel","sem_mobile"],"name":"Meu Super","lat":37.8485167,"category":"servicos","score":50,"has_analytics":false,"lng":-25.8393599,"municipality":"Sao Miguel, Acores","has_ssl":true,"has_website":true,"id":826,"has_booking":false,"is_mobile_friendly":false,"status":"analisado","has_facebook_pixel":false,"nicho":"supermercados"},{"gaps":["sem_reservas","sem_whatsapp","sem_analytics","sem_facebook_pixel","sem_mobile"],"name":"Meu Super","lat":37.7413241,"category":"servicos","score":50,"has_analytics":false,"lng":-25.6815614,"municipality":"Sao Miguel, Acores","has_ssl":true,"has_website":true,"id":842,"has_booking":false,"is_mobile_friendly":false,"status":"analisado","has_facebook_pixel":false,"nicho":"supermercados"},{"gaps":["sem_reservas","sem_whatsapp","sem_analytics","sem_facebook_pixel","sem_mobile"],"name":"Meu Super","lat":37.7467419,"category":"servicos","score":50,"has_analytics":false,"lng":-25.2454741,"municipality":"Sao Miguel, Acores","has_ssl":true,"has_website":true,"id":846,"has_booking":false,"is_mobile_friendly":false,"status":"analisado","has_facebook_pixel":false,"nicho":"supermercados"},{"gaps":["sem_reservas","sem_whatsapp","sem_analytics","sem_facebook_pixel","sem_mobile"],"name":"Meu Super","lat":37.7406481,"category":"servicos","score":50,"has_analytics":false,"lng":-25.665696,"municipality":"Sao Miguel, Acores","has_ssl":true,"has_website":true,"id":853,"has_booking":false,"is_mobile_friendly":false,"status":"analisado","has_facebook_pixel":false,"nicho":"supermercados"},{"gaps":["sem_reservas","sem_whatsapp","sem_analytics","sem_facebook_pixel","sem_mobile"],"name":"Meu Super","lat":37.7163219,"category":"servicos","score":50,"has_analytics":false,"lng":-25.4341454,"municipality":"Sao Miguel, Acores","has_ssl":true,"has_website":true,"id":888,"has_booking":false,"is_mobile_friendly":false,"status":"analisado","has_facebook_pixel":false,"nicho":"supermercados"},{"gaps":["sem_reservas","sem_whatsapp","sem_analytics","sem_facebook_pixel","sem_mobile"],"name":"Meu Super","lat":37.7421636,"category":"servicos","score":50,"has_analytics":false,"lng":-25.6763915,"municipality":"Sao Miguel, Acores","has_ssl":true,"has_website":true,"id":891,"has_booking":false,"is_mobile_friendly":false,"status":"analisado","has_facebook_pixel":false,"nicho":"supermercados"},{"gaps":["sem_reservas","sem_whatsapp","sem_analytics","sem_facebook_pixel","sem_mobile"],"name":"Meu Super","lat":37.7569394,"category":"servicos","score":50,"has_analytics":false,"lng":-25.7222347,"municipality":"Sao Miguel, Acores","has_ssl":true,"has_website":true,"id":898,"has_booking":false,"is_mobile_friendly":false,"status":"analisado","has_facebook_pixel":false,"nicho":"supermercados"},{"gaps":["sem_reservas","sem_whatsapp","sem_analytics","sem_facebook_pixel","sem_mobile"],"name":"Meu Super","lat":37.8232792,"category":"servicos","score":50,"has_analytics":false,"lng":-25.8218079,"municipality":"Sao Miguel, Acores","has_ssl":true,"has_website":true,"id":929,"has_booking":false,"is_mobile_friendly":false,"status":"analisado","has_facebook_pixel":false,"nicho":"supermercados"},{"gaps":["sem_reservas","sem_whatsapp","sem_analytics","sem_facebook_pixel"],"name":"Michel","lat":37.7426903,"category":"restaurantes","score":50,"has_analytics":false,"lng":-25.6586038,"municipality":"Sao Miguel, Acores","has_ssl":true,"has_website":true,"id":35,"has_booking":false,"is_mobile_friendly":true,"status":"analisado","has_facebook_pixel":false,"nicho":"restaurantes"},{"gaps":["sem_reservas","sem_whatsapp","sem_analytics","sem_facebook_pixel","sem_mobile"],"name":"Mike's place","lat":37.7550644,"category":"restaurantes","score":50,"has_analytics":false,"lng":-25.6111703,"municipality":"Sao Miguel, Acores","has_ssl":true,"has_website":true,"id":418,"has_booking":false,"is_mobile_friendly":false,"status":"analisado","has_facebook_pixel":false,"nicho":"bares"},{"gaps":["sem_reservas","sem_whatsapp","sem_analytics","sem_facebook_pixel","sem_mobile"],"name":"Milénio","lat":38.679178,"category":"restaurantes","score":50,"has_analytics":false,"lng":-28.207528,"municipality":"Sao Jorge, Acores","has_ssl":true,"has_website":true,"id":1301,"has_booking":false,"is_mobile_friendly":false,"status":"analisado","has_facebook_pixel":false,"nicho":"restaurantes"},{"gaps":["sem_reservas","sem_whatsapp","sem_analytics","sem_facebook_pixel"],"name":"Montanha","lat":38.5347813,"category":"restaurantes","score":50,"has_analytics":false,"lng":-28.5076758,"municipality":"Pico, Acores","has_ssl":true,"has_website":true,"id":1243,"has_booking":false,"is_mobile_friendly":true,"status":"analisado","has_facebook_pixel":false,"nicho":"restaurantes"},{"gaps":["sem_reservas","sem_whatsapp","sem_analytics","sem_facebook_pixel"],"name":"Mãe D’alma","lat":37.7422691,"category":"restaurantes","score":50,"has_analytics":false,"lng":-25.6738825,"municipality":"Sao Miguel, Acores","has_ssl":true,"has_website":true,"id":389,"has_booking":false,"is_mobile_friendly":true,"status":"analisado","has_facebook_pixel":false,"nicho":"cafes"},{"gaps":["sem_reservas","sem_whatsapp","sem_facebook_pixel"],"name":"Nonnas teeth & tomatoes","lat":37.7420157,"category":"restaurantes","score":50,"has_analytics":true,"lng":-25.6694771,"municipality":"Sao Miguel, Acores","has_ssl":true,"has_website":true,"id":46,"has_booking":false,"is_mobile_friendly":true,"status":"analisado","has_facebook_pixel":false,"nicho":"restaurantes"},{"gaps":["sem_reservas","sem_whatsapp","sem_analytics","sem_facebook_pixel"],"name":"North Sushi","lat":37.8220608,"category":"restaurantes","score":50,"has_analytics":false,"lng":-25.5246435,"municipality":"Sao Miguel, Acores","has_ssl":true,"has_website":true,"id":212,"has_booking":false,"is_mobile_friendly":true,"status":"analisado","has_facebook_pixel":false,"nicho":"restaurantes"},{"gaps":["sem_reservas","sem_whatsapp","sem_analytics","sem_facebook_pixel"],"name":"O Anfiteatro","lat":37.7385147,"category":"restaurantes","score":50,"has_analytics":false,"lng":-25.662657,"municipality":"Sao Miguel, Acores","has_ssl":true,"has_website":true,"id":40,"has_booking":false,"is_mobile_friendly":true,"status":"analisado","has_facebook_pixel":false,"nicho":"restaurantes"},{"gaps":["sem_reservas","sem_whatsapp","sem_analytics","sem_facebook_pixel","sem_mobile"],"name":"O Barbeque","lat":38.409296,"category":"restaurantes","score":50,"has_analytics":false,"lng":-28.1248395,"municipality":"Pico, Acores","has_ssl":true,"has_website":true,"id":1221,"has_booking":false,"is_mobile_friendly":false,"status":"analisado","has_facebook_pixel":false,"nicho":"restaurantes"},{"gaps":["sem_reservas","sem_whatsapp","sem_analytics","sem_facebook_pixel","sem_ssl","sem_mobile"],"name":"O Canto da Passarada","lat":37.7511823,"category":"restaurantes","score":50,"has_analytics":false,"lng":-25.6278996,"municipality":"Sao Miguel, Acores","has_ssl":false,"has_website":true,"id":417,"has_booking":false,"is_mobile_friendly":false,"status":"analisado","has_facebook_pixel":false,"nicho":"bares"},{"gaps":["sem_reservas","sem_whatsapp","sem_analytics","sem_facebook_pixel","sem_mobile"],"name":"O Carlos","lat":37.7450927,"category":"restaurantes","score":50,"has_analytics":false,"lng":-25.5755697,"municipality":"Sao Miguel, Acores","has_ssl":true,"has_website":true,"id":237,"has_booking":false,"is_mobile_friendly":false,"status":"analisado","has_facebook_pixel":false,"nicho":"restaurantes"},{"gaps":["sem_reservas","sem_whatsapp","sem_analytics","sem_facebook_pixel"],"name":"O Chico","lat":38.6541292,"category":"restaurantes","score":50,"has_analytics":false,"lng":-27.2192473,"municipality":"Terceira, Acores","has_ssl":true,"has_website":true,"id":966,"has_booking":false,"is_mobile_friendly":true,"status":"analisado","has_facebook_pixel":false,"nicho":"restaurantes"},{"gaps":["sem_reservas","sem_whatsapp","sem_analytics","sem_facebook_pixel"],"name":"O Garfo d'Avó Nanda","lat":38.6800884,"category":"restaurantes","score":50,"has_analytics":false,"lng":-28.2072751,"municipality":"Sao Jorge, Acores","has_ssl":true,"has_website":true,"id":1296,"has_booking":false,"is_mobile_friendly":true,"status":"analisado","has_facebook_pixel":false,"nicho":"restaurantes"},{"gaps":["sem_reservas","sem_whatsapp","sem_analytics","sem_facebook_pixel","sem_mobile"],"name":"O Pescador","lat":37.8143443,"category":"restaurantes","score":50,"has_analytics":false,"lng":-25.5745233,"municipality":"Sao Miguel, Acores","has_ssl":true,"has_website":true,"id":83,"has_booking":false,"is_mobile_friendly":false,"status":"analisado","has_facebook_pixel":false,"nicho":"restaurantes"},{"gaps":["sem_reservas","sem_whatsapp","sem_analytics","sem_facebook_pixel","sem_mobile"],"name":"O Pescador","lat":38.7315355,"category":"restaurantes","score":50,"has_analytics":false,"lng":-27.0596992,"municipality":"Terceira, Acores","has_ssl":true,"has_website":true,"id":944,"has_booking":false,"is_mobile_friendly":false,"status":"analisado","has_facebook_pixel":false,"nicho":"restaurantes"},{"gaps":["sem_reservas","sem_whatsapp","sem_analytics","sem_facebook_pixel","sem_mobile"],"name":"O Raul","lat":38.7946145,"category":"restaurantes","score":50,"has_analytics":false,"lng":-27.2531706,"municipality":"Terceira, Acores","has_ssl":true,"has_website":true,"id":974,"has_booking":false,"is_mobile_friendly":false,"status":"analisado","has_facebook_pixel":false,"nicho":"restaurantes"},{"gaps":["sem_reservas","sem_whatsapp","sem_analytics","sem_facebook_pixel","sem_mobile"],"name":"O Raul","lat":38.7958511,"category":"restaurantes","score":50,"has_analytics":false,"lng":-27.2477671,"municipality":"Terceira, Acores","has_ssl":true,"has_website":true,"id":975,"has_booking":false,"is_mobile_friendly":false,"status":"analisado","has_facebook_pixel":false,"nicho":"restaurantes"},{"gaps":["sem_reservas","sem_whatsapp","sem_analytics","sem_facebook_pixel"],"name":"O Rei das Bifanas","lat":37.8034394,"category":"restaurantes","score":50,"has_analytics":false,"lng":-25.7897371,"municipality":"Sao Miguel, Acores","has_ssl":true,"has_website":true,"id":177,"has_booking":false,"is_mobile_friendly":true,"status":"analisado","has_facebook_pixel":false,"nicho":"restaurantes"},{"gaps":["sem_reservas","sem_whatsapp","sem_facebook_pixel"],"name":"O Silva","lat":37.8032228,"category":"restaurantes","score":50,"has_analytics":true,"lng":-25.7931039,"municipality":"Sao Miguel, Acores","has_ssl":true,"has_website":true,"id":372,"has_booking":false,"is_mobile_friendly":true,"status":"analisado","has_facebook_pixel":false,"nicho":"cafes"},{"gaps":["sem_reservas","sem_whatsapp","sem_analytics","sem_facebook_pixel"],"name":"Onda","lat":38.4264255,"category":"restaurantes","score":50,"has_analytics":false,"lng":-28.4215118,"municipality":"Pico, Acores","has_ssl":true,"has_website":true,"id":1238,"has_booking":false,"is_mobile_friendly":true,"status":"analisado","has_facebook_pixel":false,"nicho":"restaurantes"},{"gaps":["sem_reservas","sem_whatsapp","sem_facebook_pixel"],"name":"Pacheco Medeiros","lat":37.7391315,"category":"clinicas","score":50,"has_analytics":true,"lng":-25.6695336,"municipality":"Sao Miguel, Acores","has_ssl":true,"has_website":true,"id":724,"has_booking":false,"is_mobile_friendly":true,"status":"analisado","has_facebook_pixel":false,"nicho":"farmacias"},{"gaps":["sem_reservas","sem_whatsapp","sem_analytics","sem_facebook_pixel","sem_mobile"],"name":"Paladares da Quinta","lat":37.7502087,"category":"restaurantes","score":50,"has_analytics":false,"lng":-25.5868591,"municipality":"Sao Miguel, Acores","has_ssl":true,"has_website":true,"id":224,"has_booking":false,"is_mobile_friendly":false,"status":"analisado","has_facebook_pixel":false,"nicho":"restaurantes"},{"gaps":["sem_reservas","sem_whatsapp","sem_analytics","sem_facebook_pixel"],"name":"Parafarmacia PAIM","lat":37.7472822,"category":"clinicas","score":50,"has_analytics":false,"lng":-25.6835544,"municipality":"Sao Miguel, Acores","has_ssl":true,"has_website":true,"id":711,"has_booking":false,"is_mobile_friendly":true,"status":"analisado","has_facebook_pixel":false,"nicho":"farmacias"},{"gaps":["sem_reservas","sem_whatsapp","sem_facebook_pixel","sem_mobile"],"name":"Pastella","lat":38.5349684,"category":"restaurantes","score":50,"has_analytics":true,"lng":-28.5279465,"municipality":"Pico, Acores","has_ssl":true,"has_website":true,"id":1231,"has_booking":false,"is_mobile_friendly":false,"status":"analisado","has_facebook_pixel":false,"nicho":"restaurantes"},{"gaps":["sem_reservas","sem_whatsapp","sem_facebook_pixel"],"name":"Pedro Eleutério","lat":37.7731612,"category":"clinicas","score":50,"has_analytics":true,"lng":-25.3149728,"municipality":"Sao Miguel, Acores","has_ssl":true,"has_website":true,"id":701,"has_booking":false,"is_mobile_friendly":true,"status":"analisado","has_facebook_pixel":false,"nicho":"dentistas"},{"gaps":["sem_reservas","sem_whatsapp","sem_analytics","sem_facebook_pixel"],"name":"Pharma Luz","lat":37.8277986,"category":"clinicas","score":50,"has_analytics":false,"lng":-25.6404438,"municipality":"Sao Miguel, Acores","has_ssl":true,"has_website":true,"id":726,"has_booking":false,"is_mobile_friendly":true,"status":"analisado","has_facebook_pixel":false,"nicho":"farmacias"},{"gaps":["sem_reservas","sem_whatsapp","sem_analytics","sem_facebook_pixel","sem_mobile"],"name":"Pico da Saudade","lat":38.4692354,"category":"alojamento","score":50,"has_analytics":false,"lng":-28.2029794,"municipality":"Pico, Acores","has_ssl":true,"has_website":true,"id":1274,"has_booking":false,"is_mobile_friendly":false,"status":"analisado","has_facebook_pixel":false,"nicho":"hoteis"},{"gaps":["sem_reservas","sem_whatsapp","sem_analytics","sem_facebook_pixel"],"name":"Pizza Roma","lat":38.6350358,"category":"restaurantes","score":50,"has_analytics":false,"lng":-28.7155795,"municipality":"Faial, Acores","has_ssl":true,"has_website":true,"id":1152,"has_booking":false,"is_mobile_friendly":true,"status":"analisado","has_facebook_pixel":false,"nicho":"restaurantes"},{"gaps":["sem_reservas","sem_whatsapp","sem_analytics","sem_facebook_pixel","sem_ssl"],"name":"Pizzaria O Sole Mio","lat":37.848267,"category":"restaurantes","score":50,"has_analytics":false,"lng":-25.8390859,"municipality":"Sao Miguel, Acores","has_ssl":false,"has_website":true,"id":98,"has_booking":false,"is_mobile_friendly":true,"status":"analisado","has_facebook_pixel":false,"nicho":"restaurantes"},{"gaps":["sem_reservas","sem_whatsapp","sem_analytics","sem_facebook_pixel"],"name":"Pizzaria Trigo Azul","lat":38.5287452,"category":"restaurantes","score":50,"has_analytics":false,"lng":-28.6273414,"municipality":"Faial, Acores","has_ssl":true,"has_website":true,"id":1142,"has_booking":false,"is_mobile_friendly":true,"status":"analisado","has_facebook_pixel":false,"nicho":"restaurantes"},{"gaps":["sem_reservas","sem_whatsapp","sem_analytics","sem_facebook_pixel","sem_mobile"],"name":"Plaza Cafe","lat":37.7481224,"category":"restaurantes","score":50,"has_analytics":false,"lng":-25.6656393,"municipality":"Sao Miguel, Acores","has_ssl":true,"has_website":true,"id":299,"has_booking":false,"is_mobile_friendly":false,"status":"analisado","has_facebook_pixel":false,"nicho":"cafes"},{"gaps":["sem_reservas","sem_whatsapp","sem_analytics","sem_facebook_pixel","sem_mobile"],"name":"Ponto de Encontro","lat":37.734323,"category":"restaurantes","score":50,"has_analytics":false,"lng":-25.683531,"municipality":"Sao Miguel, Acores","has_ssl":true,"has_website":true,"id":259,"has_booking":false,"is_mobile_friendly":false,"status":"analisado","has_facebook_pixel":false,"nicho":"cafes"},{"gaps":["sem_reservas","sem_whatsapp","sem_analytics","sem_facebook_pixel","sem_mobile"],"name":"Porto da Espada","lat":37.7389283,"category":"restaurantes","score":50,"has_analytics":false,"lng":-25.6609271,"municipality":"Sao Miguel, Acores","has_ssl":true,"has_website":true,"id":124,"has_booking":false,"is_mobile_friendly":false,"status":"analisado","has_facebook_pixel":false,"nicho":"restaurantes"},{"gaps":["sem_reservas","sem_whatsapp","sem_analytics","sem_facebook_pixel","sem_mobile"],"name":"Pousada da Juventude","lat":37.743736,"category":"alojamento","score":50,"has_analytics":false,"lng":-25.6750183,"municipality":"Sao Miguel, Acores","has_ssl":true,"has_website":true,"id":675,"has_booking":false,"is_mobile_friendly":false,"status":"analisado","has_facebook_pixel":false,"nicho":"alojamento_local"},{"gaps":["sem_reservas","sem_whatsapp","sem_analytics","sem_facebook_pixel","sem_mobile"],"name":"Pé na Agua","lat":37.7461848,"category":"restaurantes","score":50,"has_analytics":false,"lng":-25.2481959,"municipality":"Sao Miguel, Acores","has_ssl":true,"has_website":true,"id":452,"has_booking":false,"is_mobile_friendly":false,"status":"analisado","has_facebook_pixel":false,"nicho":"bares"},{"gaps":["sem_reservas","sem_whatsapp","sem_analytics","sem_facebook_pixel","sem_mobile"],"name":"Pé na areia","lat":37.751631,"category":"restaurantes","score":50,"has_analytics":false,"lng":-25.6241927,"municipality":"Sao Miguel, Acores","has_ssl":true,"has_website":true,"id":85,"has_booking":false,"is_mobile_friendly":false,"status":"analisado","has_facebook_pixel":false,"nicho":"restaurantes"},{"gaps":["sem_reservas","sem_whatsapp","sem_analytics","sem_facebook_pixel","sem_ssl","sem_mobile"],"name":"Quinta Atlantis","lat":37.7616512,"category":"alojamento","score":50,"has_analytics":false,"lng":-25.248679,"municipality":"Sao Miguel, Acores","has_ssl":false,"has_website":true,"id":549,"has_booking":false,"is_mobile_friendly":false,"status":"analisado","has_facebook_pixel":false,"nicho":"alojamento_local"},{"gaps":["sem_reservas","sem_whatsapp","sem_analytics","sem_facebook_pixel","sem_ssl","sem_mobile"],"name":"Quinta Santa Barbara Casas Turisticas","lat":37.7501826,"category":"alojamento","score":50,"has_analytics":false,"lng":-25.5870541,"municipality":"Sao Miguel, Acores","has_ssl":false,"has_website":true,"id":496,"has_booking":false,"is_mobile_friendly":false,"status":"analisado","has_facebook_pixel":false,"nicho":"hoteis"},{"gaps":["sem_reservas","sem_whatsapp","sem_analytics","sem_facebook_pixel"],"name":"Quinta dos Sabores","lat":37.791754,"category":"restaurantes","score":50,"has_analytics":false,"lng":-25.5833792,"municipality":"Sao Miguel, Acores","has_ssl":true,"has_website":true,"id":92,"has_booking":false,"is_mobile_friendly":true,"status":"analisado","has_facebook_pixel":false,"nicho":"restaurantes"},{"gaps":["sem_reservas","sem_whatsapp","sem_analytics","sem_facebook_pixel","sem_mobile"],"name":"R3","lat":38.7204376,"category":"restaurantes","score":50,"has_analytics":false,"lng":-27.0636591,"municipality":"Terceira, Acores","has_ssl":true,"has_website":true,"id":1008,"has_booking":false,"is_mobile_friendly":false,"status":"analisado","has_facebook_pixel":false,"nicho":"restaurantes"},{"gaps":["sem_reservas","sem_whatsapp","sem_analytics","sem_facebook_pixel","sem_ssl","sem_mobile"],"name":"Ramen Bambu","lat":37.7389691,"category":"restaurantes","score":50,"has_analytics":false,"lng":-25.6608284,"municipality":"Sao Miguel, Acores","has_ssl":false,"has_website":true,"id":198,"has_booking":false,"is_mobile_friendly":false,"status":"analisado","has_facebook_pixel":false,"nicho":"restaurantes"},{"gaps":["sem_reservas","sem_whatsapp","sem_analytics","sem_facebook_pixel","sem_mobile"],"name":"Ramires","lat":37.7387495,"category":"restaurantes","score":50,"has_analytics":false,"lng":-25.662404,"municipality":"Sao Miguel, Acores","has_ssl":true,"has_website":true,"id":127,"has_booking":false,"is_mobile_friendly":false,"status":"analisado","has_facebook_pixel":false,"nicho":"restaurantes"},{"gaps":["sem_reservas","sem_whatsapp","sem_analytics","sem_facebook_pixel"],"name":"Ramo Grande","lat":38.7607604,"category":"restaurantes","score":50,"has_analytics":false,"lng":-27.0967903,"municipality":"Terceira, Acores","has_ssl":true,"has_website":true,"id":954,"has_booking":false,"is_mobile_friendly":true,"status":"analisado","has_facebook_pixel":false,"nicho":"restaurantes"},{"gaps":["sem_reservas","sem_whatsapp","sem_analytics","sem_facebook_pixel","sem_mobile"],"name":"Recanto","lat":37.8222053,"category":"restaurantes","score":50,"has_analytics":false,"lng":-25.4256003,"municipality":"Sao Miguel, Acores","has_ssl":true,"has_website":true,"id":369,"has_booking":false,"is_mobile_friendly":false,"status":"analisado","has_facebook_pixel":false,"nicho":"cafes"},{"gaps":["sem_reservas","sem_whatsapp","sem_analytics","sem_facebook_pixel","sem_mobile"],"name":"Regresso à conversa","lat":37.7416817,"category":"restaurantes","score":50,"has_analytics":false,"lng":-25.6667787,"municipality":"Sao Miguel, Acores","has_ssl":true,"has_website":true,"id":123,"has_booking":false,"is_mobile_friendly":false,"status":"analisado","has_facebook_pixel":false,"nicho":"restaurantes"},{"gaps":["sem_reservas","sem_whatsapp","sem_analytics","sem_facebook_pixel"],"name":"Residencia Bem Estar Dona Adelina","lat":37.7163591,"category":"alojamento","score":50,"has_analytics":false,"lng":-25.3771045,"municipality":"Sao Miguel, Acores","has_ssl":true,"has_website":true,"id":501,"has_booking":false,"is_mobile_friendly":true,"status":"analisado","has_facebook_pixel":false,"nicho":"hoteis"},{"gaps":["sem_reservas","sem_whatsapp","sem_facebook_pixel"],"name":"Residencial \"O Comercial\"","lat":37.7410729,"category":"alojamento","score":50,"has_analytics":true,"lng":-25.6693169,"municipality":"Sao Miguel, Acores","has_ssl":true,"has_website":true,"id":477,"has_booking":false,"is_mobile_friendly":true,"status":"analisado","has_facebook_pixel":false,"nicho":"hoteis"},