[{"id":150,"name":"Pizza Al Taglio by Arte Gourmet","category":"restaurantes","nicho":"restaurantes","score":75,"lat":37.7449583,"lng":-25.5798802,"municipality":"Sao Miguel, Acores","website":"https://www.instagram.com/pizzaaltagliobyartegourmet/","address":"Largo Ville D' Sante Therese 11, Lagoa, 9560-046","has_website":false,"has_booking":false,"has_analytics":true,"has_facebook_pixel":false,"has_ssl":true,"is_mobile_friendly":true,"gaps":["sem_website","sem_reservas","sem_whatsapp","sem_facebook_pixel"],"status":"analisado"},{"id":287,"name":"Louvre Michaelense","category":"restaurantes","nicho":"cafes","score":74,"lat":37.7404972,"lng":-25.6687181,"municipality":"Sao Miguel, Acores","website":"https://www.facebook.com/louvremichaelense/timeline","address":"Rua António José de Almeida 8, Ponta Delgada, 9500-053","has_website":false,"has_booking":false,"has_analytics":true,"has_facebook_pixel":false,"has_ssl":true,"is_mobile_friendly":true,"gaps":["sem_website","sem_reservas","sem_whatsapp","sem_facebook_pixel"],"status":"analisado"},{"id":201,"name":"Queijaria Furnense","category":"restaurantes","nicho":"restaurantes","score":74,"lat":37.7702427,"lng":-25.3157689,"municipality":"Sao Miguel, Acores","website":"https://www.facebook.com/queijariafurnense/","address":null,"has_website":false,"has_booking":false,"has_analytics":true,"has_facebook_pixel":false,"has_ssl":true,"is_mobile_friendly":true,"gaps":["sem_website","sem_reservas","sem_whatsapp","sem_facebook_pixel"],"status":"analisado"},{"id":1105,"name":"Women's Hairdresser ","category":"saloes","nicho":"cabeleireiros","score":74,"lat":38.6561396,"lng":-27.2699643,"municipality":"Terceira, Acores","website":"https://www.instagram.com/anamelo_makeup/","address":null,"has_website":false,"has_booking":false,"has_analytics":false,"has_facebook_pixel":false,"has_ssl":true,"is_mobile_friendly":true,"gaps":["sem_website","sem_reservas","sem_whatsapp","sem_analytics","sem_facebook_pixel"],"status":"analisado"},{"id":508,"name":"Casa do Teatro","category":"alojamento","nicho":"hoteis","score":72,"lat":37.742344,"lng":-25.6669914,"municipality":"Sao Miguel, Acores","website":"https://casadoteatro.pt","address":"Rua João Moreira 19, 9500-075","has_website":true,"has_booking":false,"has_analytics":false,"has_facebook_pixel":false,"has_ssl":true,"is_mobile_friendly":true,"gaps":["sem_reservas","sem_whatsapp","sem_analytics","sem_facebook_pixel"],"status":"analisado"},{"id":405,"name":"Doris Bar","category":"restaurantes","nicho":"bares","score":70,"lat":37.7393012,"lng":-25.6627746,"municipality":"Sao Miguel, Acores","website":"https://www.instagram.com/doris.bar_","address":"Portas do Mar","has_website":false,"has_booking":false,"has_analytics":true,"has_facebook_pixel":false,"has_ssl":true,"is_mobile_friendly":true,"gaps":["sem_website","sem_reservas","sem_whatsapp","sem_facebook_pixel"],"status":"analisado"},{"id":447,"name":"Azores Forever","category":"restaurantes","nicho":"bares","score":69,"lat":37.7399018,"lng":-25.6688363,"municipality":"Sao Miguel, Acores","website":"https://m.facebook.com/Azores-Forever-671130589999065/?hc_location=ufi","address":"Rua do Mello 10","has_website":false,"has_booking":false,"has_analytics":true,"has_facebook_pixel":false,"has_ssl":true,"is_mobile_friendly":true,"gaps":["sem_website","sem_reservas","sem_whatsapp","sem_facebook_pixel"],"status":"analisado"},{"id":430,"name":"Bar do Pi","category":"restaurantes","nicho":"bares","score":69,"lat":37.7390392,"lng":-25.6606623,"municipality":"Sao Miguel, Acores","website":"https://m.facebook.com/bardopi/","address":"Portas do Mar","has_website":false,"has_booking":false,"has_analytics":true,"has_facebook_pixel":false,"has_ssl":true,"is_mobile_friendly":true,"gaps":["sem_website","sem_reservas","sem_whatsapp","sem_facebook_pixel"],"status":"analisado"},{"id":243,"name":"Coffee Bar Alfredo","category":"restaurantes","nicho":"restaurantes","score":69,"lat":37.8161759,"lng":-25.4121108,"municipality":"Sao Miguel, Acores","website":"https://www.facebook.com/p/Coffee-Bar-Alfredo-100057389892071/","address":null,"has_website":false,"has_booking":false,"has_analytics":true,"has_facebook_pixel":false,"has_ssl":true,"is_mobile_friendly":true,"gaps":["sem_website","sem_reservas","sem_whatsapp","sem_facebook_pixel"],"status":"analisado"},{"id":47,"name":"Haibu","category":"restaurantes","nicho":"restaurantes","score":69,"lat":37.742108,"lng":-25.6698311,"municipality":"Sao Miguel, Acores","website":"https://pt-pt.facebook.com/restauranteacolmeia/","address":"Travessa do Colégio, Ponta Delgada","has_website":false,"has_booking":false,"has_analytics":true,"has_facebook_pixel":false,"has_ssl":true,"is_mobile_friendly":true,"gaps":["sem_website","sem_reservas","sem_whatsapp","sem_facebook_pixel"],"status":"analisado"},{"id":1134,"name":"Príncipe","category":"restaurantes","nicho":"restaurantes","score":69,"lat":38.5285387,"lng":-28.6281623,"municipality":"Faial, Acores","website":"https://www.facebook.com/gastronomicprincipe/","address":"Estrada Príncipe Alberto de Mónaco, Horta (Angústias), 9900-050","has_website":false,"has_booking":false,"has_analytics":true,"has_facebook_pixel":false,"has_ssl":true,"is_mobile_friendly":true,"gaps":["sem_website","sem_reservas","sem_whatsapp","sem_facebook_pixel"],"status":"analisado"},{"id":26,"name":"o giro","category":"restaurantes","nicho":"restaurantes","score":69,"lat":37.7390829,"lng":-25.6727623,"municipality":"Sao Miguel, Acores","website":"https://www.facebook.com/restauranteogiro#","address":"Rua Diario dos Acores 35, Ponta Delgada (São Miguel), 9500-178","has_website":false,"has_booking":false,"has_analytics":true,"has_facebook_pixel":false,"has_ssl":true,"is_mobile_friendly":true,"gaps":["sem_website","sem_reservas","sem_whatsapp","sem_facebook_pixel"],"status":"analisado"},{"id":5,"name":"O Roberto","category":"restaurantes","nicho":"restaurantes","score":65,"lat":37.7387827,"lng":-25.6688382,"municipality":"Sao Miguel, Acores","website":"https://www.oroberto.com","address":null,"has_website":true,"has_booking":false,"has_analytics":false,"has_facebook_pixel":false,"has_ssl":true,"is_mobile_friendly":false,"gaps":["sem_reservas","sem_whatsapp","sem_analytics","sem_facebook_pixel","sem_mobile"],"status":"analisado"},{"id":457,"name":"Pacheco","category":"restaurantes","nicho":"bares","score":65,"lat":37.8220383,"lng":-25.5243684,"municipality":"Sao Miguel, Acores","website":"https://pacheco.com","address":null,"has_website":true,"has_booking":false,"has_analytics":false,"has_facebook_pixel":false,"has_ssl":true,"is_mobile_friendly":true,"gaps":["sem_reservas","sem_whatsapp","sem_analytics","sem_facebook_pixel"],"status":"analisado"},{"id":449,"name":"Pedro Homem","category":"restaurantes","nicho":"bares","score":65,"lat":37.7422751,"lng":-25.669156,"municipality":"Sao Miguel, Acores","website":"https://bellaciao.pt/restaurante/pedro-homem-bistro-cocktails-wine-bar/","address":null,"has_website":true,"has_booking":false,"has_analytics":false,"has_facebook_pixel":false,"has_ssl":true,"is_mobile_friendly":true,"gaps":["sem_reservas","sem_whatsapp","sem_analytics","sem_facebook_pixel"],"status":"analisado"},{"id":1000,"name":"Restaurante Lima","category":"restaurantes","nicho":"restaurantes","score":65,"lat":38.6568431,"lng":-27.2687486,"municipality":"Terceira, Acores","website":"https://codigopostal.ciberforma.pt/dir/0/restaurante-o-lima/","address":"Ladeira Passal 7","has_website":true,"has_booking":false,"has_analytics":true,"has_facebook_pixel":true,"has_ssl":true,"is_mobile_friendly":true,"gaps":["sem_reservas","sem_whatsapp"],"status":"analisado"},{"id":79,"name":"Momentos","category":"restaurantes","nicho":"restaurantes","score":64,"lat":37.7388508,"lng":-25.6610984,"municipality":"Sao Miguel, Acores","website":"https://www.facebook.com/momentoscozinhadautor","address":"Galerias das Portas do Mar 5","has_website":false,"has_booking":false,"has_analytics":true,"has_facebook_pixel":false,"has_ssl":true,"is_mobile_friendly":true,"gaps":["sem_website","sem_reservas","sem_whatsapp","sem_facebook_pixel"],"status":"analisado"},{"id":70,"name":"Alabote","category":"restaurantes","nicho":"restaurantes","score":62,"lat":37.8248776,"lng":-25.5222615,"municipality":"Sao Miguel, Acores","website":"https://www.alabote.com","address":null,"has_website":true,"has_booking":false,"has_analytics":false,"has_facebook_pixel":false,"has_ssl":true,"is_mobile_friendly":false,"gaps":["sem_reservas","sem_whatsapp","sem_analytics","sem_facebook_pixel","sem_mobile"],"status":"analisado"},{"id":1356,"name":"Ponta Negra","category":"restaurantes","nicho":"restaurantes","score":62,"lat":36.9876537,"lng":-25.054541,"municipality":"Santa Maria, Acores","website":"https://pontanegra.eatbu.com/","address":null,"has_website":true,"has_booking":false,"has_analytics":false,"has_facebook_pixel":false,"has_ssl":true,"is_mobile_friendly":false,"gaps":["sem_reservas","sem_whatsapp","sem_analytics","sem_facebook_pixel","sem_mobile"],"status":"analisado"},{"id":661,"name":"Quinta de São Caetano","category":"alojamento","nicho":"alojamento_local","score":62,"lat":37.7491506,"lng":-25.6088147,"municipality":"Sao Miguel, Acores","website":"https://quintascaetano.com/","address":"Estrada Regional do Pópulo (Livramento) 195","has_website":true,"has_booking":false,"has_analytics":true,"has_facebook_pixel":false,"has_ssl":true,"is_mobile_friendly":true,"gaps":["sem_reservas","sem_whatsapp","sem_facebook_pixel"],"status":"analisado"},{"id":206,"name":"O Sole Mio São Vicente Ferreira","category":"restaurantes","nicho":"restaurantes","score":60,"lat":37.8102763,"lng":-25.6737361,"municipality":"Sao Miguel, Acores","website":"http://www.osolemio.pt/","address":"Rua de Cidade 78, 9545-528","has_website":true,"has_booking":false,"has_analytics":false,"has_facebook_pixel":false,"has_ssl":false,"is_mobile_friendly":true,"gaps":["sem_reservas","sem_whatsapp","sem_analytics","sem_facebook_pixel","sem_ssl"],"status":"analisado"},{"id":310,"name":"Café Pérola","category":"restaurantes","nicho":"cafes","score":59,"lat":37.8509812,"lng":-25.2658855,"municipality":"Sao Miguel, Acores","website":"https://cafe-perola.eatbu.com","address":"Rua do Ramal, Achada, 9630-019","has_website":true,"has_booking":false,"has_analytics":false,"has_facebook_pixel":false,"has_ssl":true,"is_mobile_friendly":false,"gaps":["sem_reservas","sem_whatsapp","sem_analytics","sem_facebook_pixel","sem_mobile"],"status":"analisado"},{"id":1120,"name":"Kabem Todos","category":"restaurantes","nicho":"restaurantes","score":59,"lat":38.5377208,"lng":-28.6254978,"municipality":"Faial, Acores","website":"https://kabemtodos.com","address":"Avenida 25 de Abril 5A, Horta (Matriz), 9900-144","has_website":true,"has_booking":false,"has_analytics":false,"has_facebook_pixel":false,"has_ssl":true,"is_mobile_friendly":true,"gaps":["sem_reservas","sem_whatsapp","sem_analytics","sem_facebook_pixel"],"status":"analisado"},{"id":746,"name":"Nutrimetics Consultant","category":"saloes","nicho":"cabeleireiros","score":59,"lat":37.7433356,"lng":-25.6811067,"municipality":"Sao Miguel, Acores","website":"https://www.municipiosefreguesias.pt/entidade/549040/nutrimetics-consultant---cruz-e-kouri---cosmetica-natural-lda--ponta-delgada","address":null,"has_website":true,"has_booking":false,"has_analytics":true,"has_facebook_pixel":false,"has_ssl":true,"is_mobile_friendly":true,"gaps":["sem_reservas","sem_whatsapp","sem_facebook_pixel"],"status":"analisado"},{"id":1146,"name":"Bliss Beach Club Faial","category":"restaurantes","nicho":"restaurantes","score":58,"lat":38.555363,"lng":-28.6105647,"municipality":"Faial, Acores","website":"https://www.blissfaial.com","address":"Avenida Unânime Praiense, Praia do Almoxarife, 9900-451","has_website":true,"has_booking":false,"has_analytics":false,"has_facebook_pixel":false,"has_ssl":true,"is_mobile_friendly":true,"gaps":["sem_reservas","sem_whatsapp","sem_analytics","sem_facebook_pixel"],"status":"analisado"},{"id":918,"name":"Pingo Doce","category":"servicos","nicho":"supermercados","score":58,"lat":37.753079,"lng":-25.6570981,"municipality":"Sao Miguel, Acores","website":"https://www.pingodoce.pt/lojas/sao-goncalo-acores/","address":"9500-110","has_website":true,"has_booking":false,"has_analytics":true,"has_facebook_pixel":false,"has_ssl":true,"is_mobile_friendly":true,"gaps":["sem_reservas","sem_whatsapp","sem_facebook_pixel"],"status":"analisado"},{"id":423,"name":"Snack Bar Jordao","category":"restaurantes","nicho":"bares","score":58,"lat":37.7405787,"lng":-25.6684968,"municipality":"Sao Miguel, Acores","website":"http://www.jordaobar.com.br/","address":"Rua Cons. Hintze Ribeiro 17;19","has_website":true,"has_booking":false,"has_analytics":true,"has_facebook_pixel":false,"has_ssl":false,"is_mobile_friendly":true,"gaps":["sem_reservas","sem_whatsapp","sem_facebook_pixel","sem_ssl"],"status":"analisado"},{"id":256,"name":"A Merenda","category":"restaurantes","nicho":"cafes","score":57,"lat":37.8209019,"lng":-25.5243449,"municipality":"Sao Miguel, Acores","website":"https://amerenda.eatbu.com","address":null,"has_website":true,"has_booking":false,"has_analytics":false,"has_facebook_pixel":false,"has_ssl":true,"is_mobile_friendly":false,"gaps":["sem_reservas","sem_whatsapp","sem_analytics","sem_facebook_pixel","sem_mobile"],"status":"analisado"},{"id":175,"name":"Black Whale","category":"restaurantes","nicho":"restaurantes","score":56,"lat":37.7162449,"lng":-25.432874,"municipality":"Sao Miguel, Acores","website":"https://blackwhale.pt/","address":"Rua Teófilo Braga 15, Vila Franca do Campo, 9680-179","has_website":true,"has_booking":false,"has_analytics":false,"has_facebook_pixel":false,"has_ssl":true,"is_mobile_friendly":true,"gaps":["sem_reservas","sem_whatsapp","sem_analytics","sem_facebook_pixel"],"status":"analisado"},{"id":993,"name":"Cachalote","category":"restaurantes","nicho":"restaurantes","score":56,"lat":38.6742504,"lng":-27.2001339,"municipality":"Terceira, Acores","website":"https://www.cachalote.pt","address":null,"has_website":true,"has_booking":false,"has_analytics":false,"has_facebook_pixel":false,"has_ssl":true,"is_mobile_friendly":false,"gaps":["sem_reservas","sem_whatsapp","sem_analytics","sem_facebook_pixel","sem_mobile"],"status":"analisado"},{"id":1317,"name":"Café Nunes","category":"restaurantes","nicho":"cafes","score":56,"lat":38.5840381,"lng":-27.9320186,"municipality":"Sao Jorge, Acores","website":"https://cafefajavimes.pt/","address":null,"has_website":true,"has_booking":false,"has_analytics":false,"has_facebook_pixel":false,"has_ssl":true,"is_mobile_friendly":true,"gaps":["sem_reservas","sem_whatsapp","sem_analytics","sem_facebook_pixel"],"status":"analisado"},{"id":497,"name":"Cantinho da Luz","category":"alojamento","nicho":"hoteis","score":56,"lat":37.8111101,"lng":-25.6348041,"municipality":"Sao Miguel, Acores","website":"https://www.freecancellations.com/search/F2giQ1MGHnsAXFIBVVhYTQ8KV08zQFAU?lat=37.81118&lng=-25.63509&language=de","address":"Avenida Eng. Arantes de Oliveira 2, Ponta Delgada, Sao Miguel, Azores","has_website":true,"has_booking":false,"has_analytics":true,"has_facebook_pixel":false,"has_ssl":true,"is_mobile_friendly":true,"gaps":["sem_reservas","sem_whatsapp","sem_facebook_pixel"],"status":"analisado"},{"id":628,"name":"Casa das Camélias (AL)","category":"alojamento","nicho":"alojamento_local","score":56,"lat":37.8058552,"lng":-25.1438752,"municipality":"Sao Miguel, Acores","website":"https://www.freecancellations.com/search/F2cjQQFRTyUHV1BVXlkEEggLDxpoR1cT?lat=37.85806&lng=-25.79139&language=de","address":"Rua da Lomba 19, Pedreira, 9630-194","has_website":true,"has_booking":false,"has_analytics":true,"has_facebook_pixel":false,"has_ssl":true,"is_mobile_friendly":true,"gaps":["sem_reservas","sem_whatsapp","sem_facebook_pixel"],"status":"analisado"},{"id":631,"name":"Casa do Sol Nascente (AL)","category":"alojamento","nicho":"alojamento_local","score":56,"lat":37.8512041,"lng":-25.2465075,"municipality":"Sao Miguel, Acores","website":"https://casa-sol-nascente-azores.lodgify.com/listing/en/800102","address":"Rua Direita 9, Feteira Grande - Santana, 9630-302","has_website":true,"has_booking":false,"has_analytics":false,"has_facebook_pixel":false,"has_ssl":true,"is_mobile_friendly":true,"gaps":["sem_reservas","sem_whatsapp","sem_analytics","sem_facebook_pixel"],"status":"analisado"},{"id":1007,"name":"A Barrica","category":"restaurantes","nicho":"restaurantes","score":55,"lat":38.6544062,"lng":-27.2190593,"municipality":"Terceira, Acores","website":"https://www.abarrica.com","address":"Rua de São João","has_website":true,"has_booking":false,"has_analytics":true,"has_facebook_pixel":false,"has_ssl":true,"is_mobile_friendly":true,"gaps":["sem_reservas","sem_whatsapp","sem_facebook_pixel"],"status":"analisado"},{"id":1217,"name":"Arco-íris Snack-Bar","category":"restaurantes","nicho":"restaurantes","score":55,"lat":38.4339369,"lng":-28.4559306,"municipality":"Pico, Acores","website":"https://www.sluurpy.com/pt/pico/restaurant/2215305/restaurante-snack-bar-arco-íris","address":null,"has_website":true,"has_booking":false,"has_analytics":true,"has_facebook_pixel":false,"has_ssl":true,"is_mobile_friendly":true,"gaps":["sem_reservas","sem_whatsapp","sem_facebook_pixel"],"status":"analisado"},{"id":162,"name":"Bella Italia","category":"restaurantes","nicho":"restaurantes","score":55,"lat":37.7383242,"lng":-25.6725302,"municipality":"Sao Miguel, Acores","website":"https://www.bellaitalia.com","address":null,"has_website":true,"has_booking":false,"has_analytics":true,"has_facebook_pixel":false,"has_ssl":true,"is_mobile_friendly":true,"gaps":["sem_reservas","sem_whatsapp","sem_facebook_pixel"],"status":"analisado"},{"id":566,"name":"Canadian Villa","category":"alojamento","nicho":"alojamento_local","score":55,"lat":37.7420469,"lng":-25.6707071,"municipality":"Sao Miguel, Acores","website":"https://canadian-villa-ponta-delgada.visit-azores.info/en/","address":"Rua do Castilho 46, 9500-042","has_website":true,"has_booking":false,"has_analytics":false,"has_facebook_pixel":false,"has_ssl":true,"is_mobile_friendly":true,"gaps":["sem_reservas","sem_whatsapp","sem_analytics","sem_facebook_pixel"],"status":"analisado"},{"id":568,"name":"Canadian Villa","category":"alojamento","nicho":"alojamento_local","score":55,"lat":37.7413277,"lng":-25.6703883,"municipality":"Sao Miguel, Acores","website":"https://canadian-villa-ponta-delgada.visit-azores.info/en/","address":"Rua do Castilho 46, 9500-042","has_website":true,"has_booking":false,"has_analytics":false,"has_facebook_pixel":false,"has_ssl":true,"is_mobile_friendly":true,"gaps":["sem_reservas","sem_whatsapp","sem_analytics","sem_facebook_pixel"],"status":"analisado"},{"id":734,"name":"Canha Clinic","category":"clinicas","nicho":"medicos","score":55,"lat":37.7520192,"lng":-25.6573932,"municipality":"Sao Miguel, Acores","website":"https://empresite.jornaldenegocios.pt/CANHA-CLINIC-ESTETICA-AVANCADA.html","address":null,"has_website":true,"has_booking":false,"has_analytics":true,"has_facebook_pixel":false,"has_ssl":true,"is_mobile_friendly":true,"gaps":["sem_reservas","sem_whatsapp","sem_facebook_pixel"],"status":"analisado"},{"id":529,"name":"Casa Ralph & Hertha","category":"alojamento","nicho":"hoteis","score":55,"lat":37.8937391,"lng":-25.7947921,"municipality":"Sao Miguel, Acores","website":"https://www.encontrei.pt/empresa/casa-ralph-hertha-ponta-delgada/","address":"Rua da Relvinha 14, João Bom, 9545-062","has_website":true,"has_booking":false,"has_analytics":true,"has_facebook_pixel":false,"has_ssl":true,"is_mobile_friendly":true,"gaps":["sem_reservas","sem_whatsapp","sem_facebook_pixel"],"status":"analisado"},{"id":592,"name":"Casa da Araucária (AL)","category":"alojamento","nicho":"alojamento_local","score":55,"lat":37.8391473,"lng":-25.157506,"municipality":"Sao Miguel, Acores","website":"https://www.airbnb.pt/rooms/11369899?s=51","address":"Rua Vale do Paiva 37, Lomba da Fazenda, 9630-087","has_website":true,"has_booking":false,"has_analytics":true,"has_facebook_pixel":true,"has_ssl":true,"is_mobile_friendly":true,"gaps":["sem_reservas","sem_whatsapp"],"status":"analisado"},{"id":595,"name":"Casa da Camélia (AL)","category":"alojamento","nicho":"alojamento_local","score":55,"lat":37.8489093,"lng":-25.1688675,"municipality":"Sao Miguel, Acores","website":"https://www.airbnb.pt/rooms/11448009?s=51","address":"Rua da Fonte 5, Lomba da Fazenda, 9630-114","has_website":true,"has_booking":false,"has_analytics":true,"has_facebook_pixel":true,"has_ssl":true,"is_mobile_friendly":true,"gaps":["sem_reservas","sem_whatsapp"],"status":"analisado"},{"id":576,"name":"Casa da Vigia (AL)","category":"alojamento","nicho":"alojamento_local","score":55,"lat":37.8537524,"lng":-25.254129,"municipality":"Sao Miguel, Acores","website":"https://www.airbnb.pt/rooms/16460442","address":"Rua Nova 3, Feteira Pequena - Santana, 9630-308","has_website":true,"has_booking":false,"has_analytics":true,"has_facebook_pixel":true,"has_ssl":true,"is_mobile_friendly":true,"gaps":["sem_reservas","sem_whatsapp"],"status":"analisado"},{"id":200,"name":"Casa de Praia","category":"restaurantes","nicho":"restaurantes","score":55,"lat":37.7171502,"lng":-25.426691,"municipality":"Sao Miguel, Acores","website":"https://casadepraia.pt","address":null,"has_website":true,"has_booking":false,"has_analytics":true,"has_facebook_pixel":false,"has_ssl":true,"is_mobile_friendly":true,"gaps":["sem_reservas","sem_whatsapp","sem_facebook_pixel"],"status":"analisado"},{"id":608,"name":"Casa do Atalho (AL)","category":"alojamento","nicho":"alojamento_local","score":55,"lat":37.8452431,"lng":-25.2303318,"municipality":"Sao Miguel, Acores","website":"https://www.airbnb.pt/rooms/22513741?s=51","address":"Rua do Atalho 34, Algarvia, 9630-222","has_website":true,"has_booking":false,"has_analytics":true,"has_facebook_pixel":true,"has_ssl":true,"is_mobile_friendly":true,"gaps":["sem_reservas","sem_whatsapp"],"status":"analisado"},{"id":590,"name":"Casa d’Eira (AL)","category":"alojamento","nicho":"alojamento_local","score":55,"lat":37.8502446,"lng":-25.1718944,"municipality":"Sao Miguel, Acores","website":"https://www.airbnb.pt/rooms/12775340#host-profile","address":"Estrada Regional 6, Lomba da Fazenda, 9630-103","has_website":true,"has_booking":false,"has_analytics":true,"has_facebook_pixel":true,"has_ssl":true,"is_mobile_friendly":true,"gaps":["sem_reservas","sem_whatsapp"],"status":"analisado"},{"id":1350,"name":"Clube Naval","category":"restaurantes","nicho":"restaurantes","score":55,"lat":36.9465127,"lng":-25.1475221,"municipality":"Santa Maria, Acores","website":"http://www.cnsantamaria.pt/","address":null,"has_website":true,"has_booking":false,"has_analytics":true,"has_facebook_pixel":false,"has_ssl":false,"is_mobile_friendly":true,"gaps":["sem_reservas","sem_whatsapp","sem_facebook_pixel","sem_ssl"],"status":"analisado"},{"id":1096,"name":"Clínica Médica Dentária da Miragaia","category":"clinicas","nicho":"dentistas","score":55,"lat":38.658422,"lng":-27.221072,"municipality":"Terceira, Acores","website":"https://fadadodente.pt/clinica/clinica-medica-dentaria-da-miragaia-unipessoal-lda-angra-do-heroismo","address":"Rua Da Miragaia 35, 9700","has_website":true,"has_booking":false,"has_analytics":true,"has_facebook_pixel":false,"has_ssl":true,"is_mobile_friendly":true,"gaps":["sem_reservas","sem_whatsapp","sem_facebook_pixel"],"status":"analisado"},{"id":168,"name":"Colmeia – Hamburgueria Açoriana","category":"restaurantes","nicho":"restaurantes","score":55,"lat":37.7401308,"lng":-25.664797,"municipality":"Sao Miguel, Acores","website":"https://www.encontrei.pt/empresa/colmeia-hamburgueria-acoriana-ponta-delgada/","address":null,"has_website":true,"has_booking":false,"has_analytics":true,"has_facebook_pixel":false,"has_ssl":true,"is_mobile_friendly":true,"gaps":["sem_reservas","sem_whatsapp","sem_facebook_pixel"],"status":"analisado"},{"id":546,"name":"Eco-Turismo","category":"alojamento","nicho":"alojamento_local","score":55,"lat":37.8620482,"lng":-25.7963045,"municipality":"Sao Miguel, Acores","website":"https://www.ecoturismo.com","address":null,"has_website":true,"has_booking":false,"has_analytics":true,"has_facebook_pixel":false,"has_ssl":true,"is_mobile_friendly":true,"gaps":["sem_reservas","sem_whatsapp","sem_facebook_pixel"],"status":"analisado"},{"id":712,"name":"Farmácia da Misericórdia do Nordeste","category":"clinicas","nicho":"farmacias","score":55,"lat":37.8325203,"lng":-25.1467975,"municipality":"Sao Miguel, Acores","website":"https://www.amarelas.pt/c/nordeste-farmacia-da-misericordia-do-nordeste-87720","address":"Praça da República 12, Nordeste, 9630-141","has_website":true,"has_booking":false,"has_analytics":true,"has_facebook_pixel":false,"has_ssl":true,"is_mobile_friendly":true,"gaps":["sem_reservas","sem_whatsapp","sem_facebook_pixel"],"status":"analisado"},{"id":732,"name":"Gabinete Médico","category":"clinicas","nicho":"medicos","score":55,"lat":37.8471261,"lng":-25.2320225,"municipality":"Sao Miguel, Acores","website":"https://www.servicospublicos.pt/servico-publico/34020/gabinete-medico-legal-dos-acores-oriental","address":"Rua Dom David Dias Pimentel 7, Algarvia, 9630-221","has_website":true,"has_booking":false,"has_analytics":true,"has_facebook_pixel":false,"has_ssl":true,"is_mobile_friendly":true,"gaps":["sem_reservas","sem_whatsapp","sem_facebook_pixel"],"status":"analisado"},{"id":733,"name":"Gabinete Médico","category":"clinicas","nicho":"medicos","score":55,"lat":37.8525506,"lng":-25.2085891,"municipality":"Sao Miguel, Acores","website":"https://www.servicospublicos.pt/servico-publico/34020/gabinete-medico-legal-dos-acores-oriental","address":"Estrada Regional, Santo António de Nordestinho, 9630-230","has_website":true,"has_booking":false,"has_analytics":true,"has_facebook_pixel":false,"has_ssl":true,"is_mobile_friendly":true,"gaps":["sem_reservas","sem_whatsapp","sem_facebook_pixel"],"status":"analisado"},{"id":745,"name":"Hairdresser","category":"saloes","nicho":"cabeleireiros","score":55,"lat":37.7448566,"lng":-25.6835284,"municipality":"Sao Miguel, Acores","website":"https://www.hairdresser.com","address":null,"has_website":true,"has_booking":false,"has_analytics":true,"has_facebook_pixel":false,"has_ssl":true,"is_mobile_friendly":true,"gaps":["sem_reservas","sem_whatsapp","sem_facebook_pixel"],"status":"analisado"},{"id":1334,"name":"José João","category":"restaurantes","nicho":"restaurantes","score":55,"lat":39.0514547,"lng":-27.971208,"municipality":"Graciosa, Acores","website":"https://jjoao.com","address":null,"has_website":true,"has_booking":false,"has_analytics":true,"has_facebook_pixel":false,"has_ssl":true,"is_mobile_friendly":true,"gaps":["sem_reservas","sem_whatsapp","sem_facebook_pixel"],"status":"analisado"},{"id":172,"name":"Mercado da Vila","category":"restaurantes","nicho":"restaurantes","score":55,"lat":37.7144205,"lng":-25.4332782,"municipality":"Sao Miguel, Acores","website":"https://www.mercadodavila.pt/","address":"Rua Vasco da Silveira 36, 9680-185","has_website":true,"has_booking":false,"has_analytics":true,"has_facebook_pixel":false,"has_ssl":true,"is_mobile_friendly":true,"gaps":["sem_reservas","sem_whatsapp","sem_facebook_pixel"],"status":"analisado"},{"id":1345,"name":"Moinho de Pedra","category":"alojamento","nicho":"hoteis","score":55,"lat":39.0555845,"lng":-27.9705222,"municipality":"Graciosa, Acores","website":"https://moinhodepedra.pt","address":null,"has_website":true,"has_booking":false,"has_analytics":false,"has_facebook_pixel":false,"has_ssl":true,"is_mobile_friendly":true,"gaps":["sem_reservas","sem_whatsapp","sem_analytics","sem_facebook_pixel"],"status":"analisado"},{"id":125,"name":"O Silva","category":"restaurantes","nicho":"restaurantes","score":55,"lat":37.8131886,"lng":-25.5341689,"municipality":"Sao Miguel, Acores","website":"https://osilva.pt","address":null,"has_website":true,"has_booking":false,"has_analytics":false,"has_facebook_pixel":false,"has_ssl":true,"is_mobile_friendly":true,"gaps":["sem_reservas","sem_whatsapp","sem_analytics","sem_facebook_pixel"],"status":"analisado"},{"id":199,"name":"Pesqueiro","category":"restaurantes","nicho":"restaurantes","score":55,"lat":37.7387853,"lng":-25.6612244,"municipality":"Sao Miguel, Acores","website":"https://www.pesqueiro.pt","address":null,"has_website":true,"has_booking":false,"has_analytics":false,"has_facebook_pixel":false,"has_ssl":true,"is_mobile_friendly":true,"gaps":["sem_reservas","sem_whatsapp","sem_analytics","sem_facebook_pixel"],"status":"analisado"},{"id":18,"name":"Pérola do Oceano","category":"restaurantes","nicho":"restaurantes","score":55,"lat":37.7222053,"lng":-25.5073257,"municipality":"Sao Miguel, Acores","website":"http://www.peroladooceanomantarota.com/","address":"Rua Do Paúl 26, Água de Pau, 9560-246","has_website":true,"has_booking":false,"has_analytics":false,"has_facebook_pixel":false,"has_ssl":false,"is_mobile_friendly":true,"gaps":["sem_reservas","sem_whatsapp","sem_analytics","sem_facebook_pixel","sem_ssl"],"status":"analisado"},{"id":999,"name":"Quebra Mar","category":"restaurantes","nicho":"restaurantes","score":55,"lat":38.6539035,"lng":-27.2745358,"municipality":"Terceira, Acores","website":"https://quebramar.pt/en","address":null,"has_website":true,"has_booking":false,"has_analytics":false,"has_facebook_pixel":false,"has_ssl":true,"is_mobile_friendly":true,"gaps":["sem_reservas","sem_whatsapp","sem_analytics","sem_facebook_pixel"],"status":"analisado"},{"id":1344,"name":"Quinta do Fragoso","category":"alojamento","nicho":"hoteis","score":55,"lat":39.0169539,"lng":-27.9813259,"municipality":"Graciosa, Acores","website":"https://quinta-do-fragoso-hotel.visit-azores.info/en/","address":"Casa rustica 2 e casa Panoramica 2A, Alto Do Sul Luz, 9880-102","has_website":true,"has_booking":false,"has_analytics":false,"has_facebook_pixel":false,"has_ssl":true,"is_mobile_friendly":true,"gaps":["sem_reservas","sem_whatsapp","sem_analytics","sem_facebook_pixel"],"status":"analisado"},{"id":1158,"name":"Renato & Ana Capaz","category":"restaurantes","nicho":"restaurantes","score":55,"lat":38.5310978,"lng":-28.6412916,"municipality":"Faial, Acores","website":"https://bellaciao.pt/restaurante/renato-ana-capaz-restaurante-lda/","address":null,"has_website":true,"has_booking":false,"has_analytics":false,"has_facebook_pixel":false,"has_ssl":true,"is_mobile_friendly":true,"gaps":["sem_reservas","sem_whatsapp","sem_analytics","sem_facebook_pixel"],"status":"analisado"},{"id":1154,"name":"Restaurante \"O Varadouro\"","category":"restaurantes","nicho":"restaurantes","score":55,"lat":38.5651809,"lng":-28.7745391,"municipality":"Faial, Acores","website":"https://bellaciao.pt/restaurante/restaurante-o-varadouro","address":null,"has_website":true,"has_booking":false,"has_analytics":false,"has_facebook_pixel":false,"has_ssl":true,"is_mobile_friendly":true,"gaps":["sem_reservas","sem_whatsapp","sem_analytics","sem_facebook_pixel"],"status":"analisado"},{"id":984,"name":"Restaurante Preguiça","category":"restaurantes","nicho":"restaurantes","score":55,"lat":38.6476477,"lng":-27.1177071,"municipality":"Terceira, Acores","website":"https://restaurantguru.com/Restaurante-Preguisa-Porto-Judeu","address":null,"has_website":true,"has_booking":false,"has_analytics":true,"has_facebook_pixel":false,"has_ssl":true,"is_mobile_friendly":true,"gaps":["sem_reservas","sem_whatsapp","sem_facebook_pixel"],"status":"analisado"},{"id":454,"name":"Snack Bar 2020","category":"restaurantes","nicho":"bares","score":55,"lat":37.7735069,"lng":-25.3159442,"municipality":"Sao Miguel, Acores","website":"https://pt.revieweuro.com/azores/snack-bar-2020-1880664","address":null,"has_website":true,"has_booking":false,"has_analytics":false,"has_facebook_pixel":false,"has_ssl":true,"is_mobile_friendly":true,"gaps":["sem_reservas","sem_whatsapp","sem_analytics","sem_facebook_pixel"],"status":"analisado"},{"id":1150,"name":"Snack-Bar Fajã","category":"restaurantes","nicho":"restaurantes","score":55,"lat":38.6099414,"lng":-28.7614152,"municipality":"Faial, Acores","website":"https://bellaciao.pt/restaurante/snack-bar-pizzaria-faja/","address":"Rua do Meio Moio, Praia do Norte, 9900-471","has_website":true,"has_booking":false,"has_analytics":false,"has_facebook_pixel":false,"has_ssl":true,"is_mobile_friendly":true,"gaps":["sem_reservas","sem_whatsapp","sem_analytics","sem_facebook_pixel"],"status":"analisado"},{"id":611,"name":"St. Peter’s House (AL)","category":"alojamento","nicho":"alojamento_local","score":55,"lat":37.8517769,"lng":-25.2002827,"municipality":"Sao Miguel, Acores","website":"https://www.airbnb.pt/rooms/21170374?s=51","address":"Estrada Regional 21, São Pedro de Nordestinho, 9630-250","has_website":true,"has_booking":false,"has_analytics":true,"has_facebook_pixel":true,"has_ssl":true,"is_mobile_friendly":true,"gaps":["sem_reservas","sem_whatsapp"],"status":"analisado"},{"id":136,"name":"Tixico","category":"restaurantes","nicho":"restaurantes","score":55,"lat":37.7424178,"lng":-25.6571622,"municipality":"Sao Miguel, Acores","website":"https://www.tixico.pt","address":"Rua Engenheiro José Cordeiro 20, 9500-311","has_website":true,"has_booking":false,"has_analytics":true,"has_facebook_pixel":false,"has_ssl":true,"is_mobile_friendly":true,"gaps":["sem_reservas","sem_whatsapp","sem_facebook_pixel"],"status":"analisado"},{"id":1288,"name":"Velense","category":"restaurantes","nicho":"restaurantes","score":55,"lat":38.6795246,"lng":-28.2047995,"municipality":"Sao Jorge, Acores","website":"https://bellaciao.pt/restaurante/cafe-restaurante-velense-sao-jorge","address":null,"has_website":true,"has_booking":false,"has_analytics":false,"has_facebook_pixel":false,"has_ssl":true,"is_mobile_friendly":true,"gaps":["sem_reservas","sem_whatsapp","sem_analytics","sem_facebook_pixel"],"status":"analisado"},{"id":1212,"name":"Whale' come ao Pico","category":"restaurantes","nicho":"restaurantes","score":55,"lat":38.3959004,"lng":-28.2538169,"municipality":"Pico, Acores","website":"https://bellaciao.pt/restaurante/bistrot-whalecome-ao-pico/","address":null,"has_website":true,"has_booking":false,"has_analytics":false,"has_facebook_pixel":false,"has_ssl":true,"is_mobile_friendly":true,"gaps":["sem_reservas","sem_whatsapp","sem_analytics","sem_facebook_pixel"],"status":"analisado"},{"id":181,"name":"Yummy Restaurante","category":"restaurantes","nicho":"restaurantes","score":55,"lat":37.7414767,"lng":-25.6697567,"municipality":"Sao Miguel, Acores","website":"https://bellaciao.pt/restaurante/yummy-restaurante/","address":"Rua Dr. Bruno Tavares Carreiro 23, Ponta Delgada, 9500-055","has_website":true,"has_booking":false,"has_analytics":false,"has_facebook_pixel":false,"has_ssl":true,"is_mobile_friendly":true,"gaps":["sem_reservas","sem_whatsapp","sem_analytics","sem_facebook_pixel"],"status":"analisado"},{"id":565,"name":"casa dos valados","category":"alojamento","nicho":"alojamento_local","score":55,"lat":37.749873,"lng":-25.705613,"municipality":"Sao Miguel, Acores","website":"https://www.turismoenportugal.org/oferta-casa-dos-valados-ponta-delgada","address":"Rua Eng. Dinis Pimentel da Silva 8, 9500-652","has_website":true,"has_booking":false,"has_analytics":true,"has_facebook_pixel":true,"has_ssl":true,"is_mobile_friendly":true,"gaps":["sem_reservas","sem_whatsapp"],"status":"analisado"},{"id":251,"name":"A Colmeia","category":"restaurantes","nicho":"cafes","score":52,"lat":37.740291,"lng":-25.6643582,"municipality":"Sao Miguel, Acores","website":"https://a-colmeia.eatbu.com","address":null,"has_website":true,"has_booking":false,"has_analytics":true,"has_facebook_pixel":false,"has_ssl":true,"is_mobile_friendly":true,"gaps":["sem_reservas","sem_whatsapp","sem_facebook_pixel"],"status":"analisado"},{"id":319,"name":"Café Central","category":"restaurantes","nicho":"cafes","score":52,"lat":37.8073907,"lng":-25.1415049,"municipality":"Sao Miguel, Acores","website":"https://cafe-central.eatbu.com","address":"Rua da Igreja 7, Pedreira, 9630-198","has_website":true,"has_booking":false,"has_analytics":true,"has_facebook_pixel":false,"has_ssl":true,"is_mobile_friendly":true,"gaps":["sem_reservas","sem_whatsapp","sem_facebook_pixel"],"status":"analisado"},{"id":500,"name":"Casadacidade","category":"alojamento","nicho":"hoteis","score":52,"lat":37.7426078,"lng":-25.6712729,"municipality":"Sao Miguel, Acores","website":"https://www.casadacidade.pt","address":"Rua Dr. Aristides Moreira da Mota 75, Ponta Delgada, 9500-054","has_website":true,"has_booking":false,"has_analytics":true,"has_facebook_pixel":false,"has_ssl":true,"is_mobile_friendly":true,"gaps":["sem_reservas","sem_whatsapp","sem_facebook_pixel"],"status":"analisado"},{"id":1132,"name":"Clipper","category":"restaurantes","nicho":"restaurantes","score":52,"lat":38.528568,"lng":-28.6267072,"municipality":"Faial, Acores","website":"https://clipper.eatbu.com","address":"Largo Doutor Manuel de Arriaga, Horta (Angústias), 9900-026","has_website":true,"has_booking":false,"has_analytics":true,"has_facebook_pixel":false,"has_ssl":true,"is_mobile_friendly":true,"gaps":["sem_reservas","sem_whatsapp","sem_facebook_pixel"],"status":"analisado"},{"id":630,"name":"Costa's Guest House (AL)","category":"alojamento","nicho":"alojamento_local","score":52,"lat":37.8474929,"lng":-25.2364306,"municipality":"Sao Miguel, Acores","website":"http://www.nordeste.thelincehotels.com/","address":"Rua da Canada 2A, Algarvia, 9630-227","has_website":true,"has_booking":false,"has_analytics":true,"has_facebook_pixel":false,"has_ssl":true,"is_mobile_friendly":true,"gaps":["sem_reservas","sem_whatsapp","sem_facebook_pixel"],"status":"analisado"},{"id":776,"name":"Fiat","category":"servicos","nicho":"garagens","score":52,"lat":37.7440501,"lng":-25.6519793,"municipality":"Sao Miguel, Acores","website":"https://www.autoacoreana.pt/","address":null,"has_website":true,"has_booking":false,"has_analytics":false,"has_facebook_pixel":false,"has_ssl":true,"is_mobile_friendly":true,"gaps":["sem_reservas","sem_whatsapp","sem_analytics","sem_facebook_pixel"],"status":"analisado"},{"id":250,"name":"L'Expresso","category":"restaurantes","nicho":"cafes","score":52,"lat":37.7402867,"lng":-25.6645191,"municipality":"Sao Miguel, Acores","website":"https://lexpresso.eatbu.com","address":null,"has_website":true,"has_booking":false,"has_analytics":true,"has_facebook_pixel":false,"has_ssl":true,"is_mobile_friendly":true,"gaps":["sem_reservas","sem_whatsapp","sem_facebook_pixel"],"status":"analisado"},{"id":391,"name":"Lavrador","category":"restaurantes","nicho":"cafes","score":52,"lat":37.8266411,"lng":-25.4942412,"municipality":"Sao Miguel, Acores","website":"https://www.freecancellations.com/search/F2pyFlZTTHNSXlJUCA1QEVENWU9gRFwW?lat=37.7539&lng=-25.71719&language=de","address":null,"has_website":true,"has_booking":false,"has_analytics":true,"has_facebook_pixel":false,"has_ssl":true,"is_mobile_friendly":true,"gaps":["sem_reservas","sem_whatsapp","sem_facebook_pixel"],"status":"analisado"},{"id":668,"name":"Mosteiros Natural Pool House","category":"alojamento","nicho":"alojamento_local","score":52,"lat":37.8964505,"lng":-25.8222221,"municipality":"Sao Miguel, Acores","website":"https://reservas.greenvacations.pt/aluguer/casa-mosteiros-mosteiros-natural-pool-house-448681.html","address":"Rua dos Moínhos 35, 9555","has_website":true,"has_booking":false,"has_analytics":true,"has_facebook_pixel":true,"has_ssl":true,"is_mobile_friendly":true,"gaps":["sem_reservas","sem_whatsapp"],"status":"analisado"},{"id":487,"name":"Quinta da Abelheira","category":"alojamento","nicho":"hoteis","score":52,"lat":37.7615797,"lng":-25.6345773,"municipality":"Sao Miguel, Acores","website":"https://quintadaabelheira.com","address":null,"has_website":true,"has_booking":false,"has_analytics":true,"has_facebook_pixel":true,"has_ssl":true,"is_mobile_friendly":true,"gaps":["sem_reservas","sem_whatsapp"],"status":"analisado"},{"id":32,"name":"Quinta dos Açores","category":"restaurantes","nicho":"restaurantes","score":52,"lat":37.7576484,"lng":-25.6641723,"municipality":"Sao Miguel, Acores","website":"https://www.quintadosacores.com","address":"Caminho da Levada 134, Ponta Delgada, 9500-081","has_website":true,"has_booking":false,"has_analytics":true,"has_facebook_pixel":false,"has_ssl":true,"is_mobile_friendly":true,"gaps":["sem_reservas","sem_whatsapp","sem_facebook_pixel"],"status":"analisado"},{"id":42,"name":"Snack Bar Restaurante Universo","category":"restaurantes","nicho":"restaurantes","score":52,"lat":37.7149214,"lng":-25.4363239,"municipality":"Sao Miguel, Acores","website":"http://www.mercadodavila.pt/","address":"Rua Doutor Augusto Botelho Simas","has_website":true,"has_booking":false,"has_analytics":true,"has_facebook_pixel":false,"has_ssl":false,"is_mobile_friendly":true,"gaps":["sem_reservas","sem_whatsapp","sem_facebook_pixel","sem_ssl"],"status":"analisado"},{"id":662,"name":"Vila Rosário","category":"alojamento","nicho":"alojamento_local","score":52,"lat":37.8306976,"lng":-25.6813415,"municipality":"Sao Miguel, Acores","website":"https://www.freecancellations.com/search/F2giQ1NSHHQAXFIBVVhYTQ8KVx8wQV1B?lat=37.83065&lng=-25.68098&language=de","address":"Rua do Rosário 32, Capelas, 9545-142","has_website":true,"has_booking":false,"has_analytics":true,"has_facebook_pixel":false,"has_ssl":true,"is_mobile_friendly":true,"gaps":["sem_reservas","sem_whatsapp","sem_facebook_pixel"],"status":"analisado"},{"id":30,"name":"Cais 20","category":"restaurantes","nicho":"restaurantes","score":51,"lat":37.7450205,"lng":-25.6391234,"municipality":"Sao Miguel, Acores","website":"https://cais-20.pt","address":null,"has_website":true,"has_booking":false,"has_analytics":false,"has_facebook_pixel":false,"has_ssl":true,"is_mobile_friendly":true,"gaps":["sem_reservas","sem_whatsapp","sem_analytics","sem_facebook_pixel"],"status":"analisado"},{"id":680,"name":"Casa Do Populo","category":"alojamento","nicho":"alojamento_local","score":51,"lat":37.7484702,"lng":-25.604548,"municipality":"Sao Miguel, Acores","website":"https://casadopopulo.jimdofree.com/","address":"Rua Padre Domingos da Silva Costa 1015, Rosto do Cão (Livramento), 9500-614","has_website":true,"has_booking":false,"has_analytics":true,"has_facebook_pixel":false,"has_ssl":true,"is_mobile_friendly":true,"gaps":["sem_reservas","sem_whatsapp","sem_facebook_pixel"],"status":"analisado"},{"id":1280,"name":"Edifício alternativo do Centro de Saúde das Lajes do Pico","category":"clinicas","nicho":"clinicas","score":51,"lat":38.3929468,"lng":-28.2517277,"municipality":"Pico, Acores","website":"http://www.scmlp.pt/","address":null,"has_website":true,"has_booking":false,"has_analytics":true,"has_facebook_pixel":false,"has_ssl":false,"is_mobile_friendly":true,"gaps":["sem_reservas","sem_whatsapp","sem_facebook_pixel","sem_ssl"],"status":"analisado"},{"id":825,"name":"Pingo Doce","category":"servicos","nicho":"supermercados","score":51,"lat":37.8311834,"lng":-25.6872102,"municipality":"Sao Miguel, Acores","website":"https://www.pingodoce.pt/lojas/capelas-acores/","address":"9545-108","has_website":true,"has_booking":false,"has_analytics":true,"has_facebook_pixel":false,"has_ssl":true,"is_mobile_friendly":true,"gaps":["sem_reservas","sem_whatsapp","sem_facebook_pixel"],"status":"analisado"},{"id":919,"name":"Pingo Doce","category":"servicos","nicho":"supermercados","score":51,"lat":37.7591453,"lng":-25.7051058,"municipality":"Sao Miguel, Acores","website":"https://www.pingodoce.pt/lojas/valados-acores/","address":"9500-367","has_website":true,"has_booking":false,"has_analytics":true,"has_facebook_pixel":false,"has_ssl":true,"is_mobile_friendly":true,"gaps":["sem_reservas","sem_whatsapp","sem_facebook_pixel"],"status":"analisado"},{"id":925,"name":"Pingo Doce","category":"servicos","nicho":"supermercados","score":51,"lat":37.7875607,"lng":-25.6028662,"municipality":"Sao Miguel, Acores","website":"https://www.pingodoce.pt/lojas/ribeira-grande-acores/","address":"9600-102","has_website":true,"has_booking":false,"has_analytics":true,"has_facebook_pixel":false,"has_ssl":true,"is_mobile_friendly":true,"gaps":["sem_reservas","sem_whatsapp","sem_facebook_pixel"],"status":"analisado"},{"id":1037,"name":"4 Cantos","category":"restaurantes","nicho":"cafes","score":50,"lat":38.6536874,"lng":-27.222906,"municipality":"Terceira, Acores","website":"https://www.4cantos.com","address":"Rua Recreio dos Artistas 29","has_website":true,"has_booking":false,"has_analytics":true,"has_facebook_pixel":false,"has_ssl":true,"is_mobile_friendly":true,"gaps":["sem_reservas","sem_whatsapp","sem_facebook_pixel"],"status":"analisado"},{"id":315,"name":"A Merenda","category":"restaurantes","nicho":"cafes","score":50,"lat":37.8225651,"lng":-25.5196738,"municipality":"Sao Miguel, Acores","website":"https://amerenda.eatbu.com","address":null,"has_website":true,"has_booking":false,"has_analytics":false,"has_facebook_pixel":false,"has_ssl":true,"is_mobile_friendly":false,"gaps":["sem_reservas","sem_whatsapp","sem_analytics","sem_facebook_pixel","sem_mobile"],"status":"analisado"},{"id":56,"name":"A Tasca","category":"restaurantes","nicho":"restaurantes","score":50,"lat":37.7410003,"lng":-25.6674158,"municipality":"Sao Miguel, Acores","website":"https://atasca.com","address":"Rua do Aljube 16, Ponta Delgada, 9500-018","has_website":true,"has_booking":false,"has_analytics":false,"has_facebook_pixel":false,"has_ssl":true,"is_mobile_friendly":false,"gaps":["sem_reservas","sem_whatsapp","sem_analytics","sem_facebook_pixel","sem_mobile"],"status":"analisado"},{"id":49,"name":"A familia","category":"restaurantes","nicho":"restaurantes","score":50,"lat":37.8184785,"lng":-25.5314158,"municipality":"Sao Miguel, Acores","website":"https://www.afamilia.com","address":"Alameda 29 de Junho 1A","has_website":true,"has_booking":false,"has_analytics":false,"has_facebook_pixel":false,"has_ssl":true,"is_mobile_friendly":false,"gaps":["sem_reservas","sem_whatsapp","sem_analytics","sem_facebook_pixel","sem_mobile"],"status":"analisado"},{"id":1219,"name":"Adega Açoriana","category":"restaurantes","nicho":"restaurantes","score":50,"lat":38.4769804,"lng":-28.2049169,"municipality":"Pico, Acores","website":"https://adegaacoriana.com/","address":null,"has_website":true,"has_booking":false,"has_analytics":false,"has_facebook_pixel":false,"has_ssl":true,"is_mobile_friendly":true,"gaps":["sem_reservas","sem_whatsapp","sem_analytics","sem_facebook_pixel"],"status":"analisado"},{"id":1218,"name":"Afropico","category":"restaurantes","nicho":"restaurantes","score":50,"lat":38.4340857,"lng":-28.4557922,"municipality":"Pico, Acores","website":"https://restaurantguru.com/AFROPICO-SMateus","address":null,"has_website":true,"has_booking":false,"has_analytics":false,"has_facebook_pixel":false,"has_ssl":true,"is_mobile_friendly":true,"gaps":["sem_reservas","sem_whatsapp","sem_analytics","sem_facebook_pixel"],"status":"analisado"},{"id":1277,"name":"Aldeia da Fonte","category":"alojamento","nicho":"hoteis","score":50,"lat":38.4131591,"lng":-28.2833321,"municipality":"Pico, Acores","website":"https://www.aldeiadafonte.com/","address":"Caminho de Baixo, Lajes do Pico, 9930-177","has_website":true,"has_booking":false,"has_analytics":false,"has_facebook_pixel":false,"has_ssl":true,"is_mobile_friendly":false,"gaps":["sem_reservas","sem_whatsapp","sem_analytics","sem_facebook_pixel","sem_mobile"],"status":"analisado"},{"id":95,"name":"Alianca","category":"restaurantes","nicho":"restaurantes","score":50,"lat":37.7390522,"lng":-25.6695192,"municipality":"Sao Miguel, Acores","website":"https://www.alianca.com","address":"Rua Açoreano Oriental 23","has_website":true,"has_booking":false,"has_analytics":false,"has_facebook_pixel":false,"has_ssl":true,"is_mobile_friendly":false,"gaps":["sem_reservas","sem_whatsapp","sem_analytics","sem_facebook_pixel","sem_mobile"],"status":"analisado"},{"id":81,"name":"Alma Latina","category":"restaurantes","nicho":"restaurantes","score":50,"lat":37.7424895,"lng":-25.5765602,"municipality":"Sao Miguel, Acores","website":"https://www.almalatina.com","address":"Largo do Porto dos Carneiros, 9560-043","has_website":true,"has_booking":false,"has_analytics":false,"has_facebook_pixel":false,"has_ssl":true,"is_mobile_friendly":false,"gaps":["sem_reservas","sem_whatsapp","sem_analytics","sem_facebook_pixel","sem_mobile"],"status":"analisado"},{"id":1038,"name":"Alto Sé","category":"restaurantes","nicho":"cafes","score":50,"lat":38.6557913,"lng":-27.2229825,"municipality":"Terceira, Acores","website":"https://www.altose.com","address":null,"has_website":true,"has_booking":false,"has_analytics":false,"has_facebook_pixel":false,"has_ssl":true,"is_mobile_friendly":false,"gaps":["sem_reservas","sem_whatsapp","sem_analytics","sem_facebook_pixel","sem_mobile"],"status":"analisado"},{"id":670,"name":"Alvarenga House","category":"alojamento","nicho":"alojamento_local","score":50,"lat":37.833357,"lng":-25.3896335,"municipality":"Sao Miguel, Acores","website":"https://web.ynnovbooking.com/booking/?l=en&apikey=0QEwij4TFikls4T1FSJRmMOrq8mSBSzI&r=7269","address":"Rua Foral Visconde 1, 9625-342","has_website":true,"has_booking":false,"has_analytics":false,"has_facebook_pixel":false,"has_ssl":true,"is_mobile_friendly":true,"gaps":["sem_reservas","sem_whatsapp","sem_analytics","sem_facebook_pixel"],"status":"analisado"},{"id":1073,"name":"Angra Central Hotel","category":"alojamento","nicho":"hoteis","score":50,"lat":38.6559509,"lng":-27.2238128,"municipality":"Terceira, Acores","website":"https://angracentralhotel.com/","address":null,"has_website":true,"has_booking":false,"has_analytics":false,"has_facebook_pixel":false,"has_ssl":true,"is_mobile_friendly":false,"gaps":["sem_reservas","sem_whatsapp","sem_analytics","sem_facebook_pixel","sem_mobile"],"status":"analisado"},{"id":1082,"name":"Angra Marina Hotel & Spa 5*","category":"alojamento","nicho":"hoteis","score":50,"lat":38.6528976,"lng":-27.2151893,"municipality":"Terceira, Acores","website":"https://www.angramarinahotel.pt","address":"Rua do Faleiro, Angra do Heroismo, 9700-075","has_website":true,"has_booking":false,"has_analytics":false,"has_facebook_pixel":false,"has_ssl":true,"is_mobile_friendly":true,"gaps":["sem_reservas","sem_whatsapp","sem_analytics","sem_facebook_pixel"],"status":"analisado"},{"id":770,"name":"AquaFit - Health & Fitness Club","category":"ginasios","nicho":"ginasios","score":50,"lat":37.7418842,"lng":-25.573561,"municipality":"Sao Miguel, Acores","website":"http://www.aquafit.pt/","address":null,"has_website":true,"has_booking":false,"has_analytics":false,"has_facebook_pixel":false,"has_ssl":false,"is_mobile_friendly":false,"gaps":["sem_reservas","sem_whatsapp","sem_analytics","sem_facebook_pixel","sem_ssl","sem_mobile"],"status":"analisado"},{"id":4,"name":"Arriba","category":"restaurantes","nicho":"restaurantes","score":50,"lat":37.7389976,"lng":-25.6702683,"municipality":"Sao Miguel, Acores","website":"https://arriba.com","address":null,"has_website":true,"has_booking":false,"has_analytics":false,"has_facebook_pixel":false,"has_ssl":true,"is_mobile_friendly":true,"gaps":["sem_reservas","sem_whatsapp","sem_analytics","sem_facebook_pixel"],"status":"analisado"},{"id":428,"name":"Azor Rock Café","category":"restaurantes","nicho":"bares","score":50,"lat":37.7405616,"lng":-25.6669698,"municipality":"Sao Miguel, Acores","website":"https://mapcarta.com/pt/N2642230076","address":null,"has_website":true,"has_booking":false,"has_analytics":false,"has_facebook_pixel":false,"has_ssl":true,"is_mobile_friendly":true,"gaps":["sem_reservas","sem_whatsapp","sem_analytics","sem_facebook_pixel"],"status":"analisado"},{"id":1077,"name":"Azores Angra Garden","category":"alojamento","nicho":"hoteis","score":50,"lat":38.6563426,"lng":-27.2183675,"municipality":"Terceira, Acores","website":"https://www.azorishotels.com/angragarden","address":"Praça Velha, Angra do Heroísmo, 9700-201","has_website":true,"has_booking":false,"has_analytics":false,"has_facebook_pixel":false,"has_ssl":true,"is_mobile_friendly":false,"gaps":["sem_reservas","sem_whatsapp","sem_analytics","sem_facebook_pixel","sem_mobile"],"status":"analisado"},{"id":469,"name":"Bar Loja","category":"restaurantes","nicho":"bares","score":50,"lat":37.7536017,"lng":-25.2034746,"municipality":"Sao Miguel, Acores","website":"https://www.barloja.com","address":null,"has_website":true,"has_booking":false,"has_analytics":false,"has_facebook_pixel":false,"has_ssl":true,"is_mobile_friendly":false,"gaps":["sem_reservas","sem_whatsapp","sem_analytics","sem_facebook_pixel","sem_mobile"],"status":"analisado"},{"id":317,"name":"Barata","category":"restaurantes","nicho":"cafes","score":50,"lat":37.7424375,"lng":-25.5764535,"municipality":"Sao Miguel, Acores","website":"https://www.barata.pt","address":null,"has_website":true,"has_booking":false,"has_analytics":false,"has_facebook_pixel":false,"has_ssl":true,"is_mobile_friendly":true,"gaps":["sem_reservas","sem_whatsapp","sem_analytics","sem_facebook_pixel"],"status":"analisado"},{"id":444,"name":"Beach Bar","category":"restaurantes","nicho":"bares","score":50,"lat":37.8893706,"lng":-25.8224109,"municipality":"Sao Miguel, Acores","website":"https://beachbar.pt","address":null,"has_website":true,"has_booking":false,"has_analytics":false,"has_facebook_pixel":false,"has_ssl":true,"is_mobile_friendly":true,"gaps":["sem_reservas","sem_whatsapp","sem_analytics","sem_facebook_pixel"],"status":"analisado"},{"id":28,"name":"Beach Bar & Grill","category":"restaurantes","nicho":"restaurantes","score":50,"lat":37.751805,"lng":-25.6261454,"municipality":"Sao Miguel, Acores","website":"https://www.beachbargrill.com","address":null,"has_website":true,"has_booking":false,"has_analytics":false,"has_facebook_pixel":false,"has_ssl":true,"is_mobile_friendly":false,"gaps":["sem_reservas","sem_whatsapp","sem_analytics","sem_facebook_pixel","sem_mobile"],"status":"analisado"},{"id":286,"name":"Beirão","category":"restaurantes","nicho":"cafes","score":50,"lat":37.8868697,"lng":-25.7390234,"municipality":"Sao Miguel, Acores","website":"https://www.beirao.pt","address":null,"has_website":true,"has_booking":false,"has_analytics":false,"has_facebook_pixel":false,"has_ssl":true,"is_mobile_friendly":false,"gaps":["sem_reservas","sem_whatsapp","sem_analytics","sem_facebook_pixel","sem_mobile"],"status":"analisado"},{"id":258,"name":"Bella Itália","category":"restaurantes","nicho":"cafes","score":50,"lat":37.7404094,"lng":-25.6671224,"municipality":"Sao Miguel, Acores","website":"https://bella-italia.eatbu.com","address":null,"has_website":true,"has_booking":false,"has_analytics":false,"has_facebook_pixel":false,"has_ssl":true,"is_mobile_friendly":false,"gaps":["sem_reservas","sem_whatsapp","sem_analytics","sem_facebook_pixel","sem_mobile"],"status":"analisado"},{"id":379,"name":"Bermudiana","category":"restaurantes","nicho":"cafes","score":50,"lat":37.7203094,"lng":-25.5109186,"municipality":"Sao Miguel, Acores","website":"https://www.bermudiana.com","address":null,"has_website":true,"has_booking":false,"has_analytics":false,"has_facebook_pixel":false,"has_ssl":true,"is_mobile_friendly":true,"gaps":["sem_reservas","sem_whatsapp","sem_analytics","sem_facebook_pixel"],"status":"analisado"},{"id":87,"name":"Big21","category":"restaurantes","nicho":"restaurantes","score":50,"lat":37.7411908,"lng":-25.663429,"municipality":"Sao Miguel, Acores","website":"https://www.big21.com","address":"Rua Ernesto do Canto 21, Ponta Delgada, 9500","has_website":true,"has_booking":false,"has_analytics":false,"has_facebook_pixel":false,"has_ssl":true,"is_mobile_friendly":false,"gaps":["sem_reservas","sem_whatsapp","sem_analytics","sem_facebook_pixel","sem_mobile"],"status":"analisado"},{"id":272,"name":"Blues Bar","category":"restaurantes","nicho":"cafes","score":50,"lat":37.7518622,"lng":-25.6258704,"municipality":"Sao Miguel, Acores","website":"https://blues-bar.com","address":null,"has_website":true,"has_booking":false,"has_analytics":false,"has_facebook_pixel":false,"has_ssl":true,"is_mobile_friendly":true,"gaps":["sem_reservas","sem_whatsapp","sem_analytics","sem_facebook_pixel"],"status":"analisado"},{"id":921,"name":"Boavista","category":"servicos","nicho":"supermercados","score":50,"lat":37.7205445,"lng":-25.5133871,"municipality":"Sao Miguel, Acores","website":"https://boavista.pt","address":"Rua Manuel Augusto Amaral 2, Água de Pau, 9560-260","has_website":true,"has_booking":false,"has_analytics":false,"has_facebook_pixel":false,"has_ssl":true,"is_mobile_friendly":false,"gaps":["sem_reservas","sem_whatsapp","sem_analytics","sem_facebook_pixel","sem_mobile"],"status":"analisado"},{"id":945,"name":"Brasileiro Pizza","category":"restaurantes","nicho":"restaurantes","score":50,"lat":38.6602757,"lng":-27.2053627,"municipality":"Terceira, Acores","website":"http://57.113.84.70/","address":"Rua Alfredo Silva Sampaio 52, Angra Do Heroísmo, 9700-013","has_website":true,"has_booking":false,"has_analytics":false,"has_facebook_pixel":false,"has_ssl":false,"is_mobile_friendly":false,"gaps":["sem_reservas","sem_whatsapp","sem_analytics","sem_facebook_pixel","sem_ssl","sem_mobile"],"status":"analisado"},{"id":361,"name":"Bulhões","category":"restaurantes","nicho":"cafes","score":50,"lat":37.8306315,"lng":-25.3523377,"municipality":"Sao Miguel, Acores","website":"https://www.bulhoes.com","address":null,"has_website":true,"has_booking":false,"has_analytics":false,"has_facebook_pixel":false,"has_ssl":true,"is_mobile_friendly":false,"gaps":["sem_reservas","sem_whatsapp","sem_analytics","sem_facebook_pixel","sem_mobile"],"status":"analisado"},{"id":89,"name":"Burgundy","category":"restaurantes","nicho":"restaurantes","score":50,"lat":37.7400741,"lng":-25.668821,"municipality":"Sao Miguel, Acores","website":"https://www.burgundy.pt","address":null,"has_website":true,"has_booking":false,"has_analytics":false,"has_facebook_pixel":false,"has_ssl":true,"is_mobile_friendly":false,"gaps":["sem_reservas","sem_whatsapp","sem_analytics","sem_facebook_pixel","sem_mobile"],"status":"analisado"},{"id":1252,"name":"C Bistrô","category":"restaurantes","nicho":"restaurantes","score":50,"lat":38.5229717,"lng":-28.3190011,"municipality":"Pico, Acores","website":"https://www.cbistro.com","address":null,"has_website":true,"has_booking":false,"has_analytics":false,"has_facebook_pixel":false,"has_ssl":true,"is_mobile_friendly":true,"gaps":["sem_reservas","sem_whatsapp","sem_analytics","sem_facebook_pixel"],"status":"analisado"},{"id":466,"name":"Cachalote Bar","category":"restaurantes","nicho":"bares","score":50,"lat":37.7460447,"lng":-25.2463225,"municipality":"Sao Miguel, Acores","website":"https://mapcarta.com/pt/N12630502928","address":null,"has_website":true,"has_booking":false,"has_analytics":false,"has_facebook_pixel":false,"has_ssl":true,"is_mobile_friendly":true,"gaps":["sem_reservas","sem_whatsapp","sem_analytics","sem_facebook_pixel"],"status":"analisado"},{"id":290,"name":"Café","category":"restaurantes","nicho":"cafes","score":50,"lat":37.7684488,"lng":-25.7058518,"municipality":"Sao Miguel, Acores","website":"https://cafe.eatbu.com","address":null,"has_website":true,"has_booking":false,"has_analytics":false,"has_facebook_pixel":false,"has_ssl":true,"is_mobile_friendly":false,"gaps":["sem_reservas","sem_whatsapp","sem_analytics","sem_facebook_pixel","sem_mobile"],"status":"analisado"},{"id":1295,"name":"Café Calhetense","category":"restaurantes","nicho":"restaurantes","score":50,"lat":38.6018113,"lng":-28.0220069,"municipality":"Sao Jorge, Acores","website":"https://cafe-calhetense-calhetense-beach-bar.negocio.site","address":null,"has_website":true,"has_booking":false,"has_analytics":false,"has_facebook_pixel":false,"has_ssl":true,"is_mobile_friendly":true,"gaps":["sem_reservas","sem_whatsapp","sem_analytics","sem_facebook_pixel"],"status":"analisado"},{"id":269,"name":"Café Costa","category":"restaurantes","nicho":"cafes","score":50,"lat":37.7425705,"lng":-25.5761231,"municipality":"Sao Miguel, Acores","website":"https://cafecosta.eatbu.com","address":null,"has_website":true,"has_booking":false,"has_analytics":false,"has_facebook_pixel":false,"has_ssl":true,"is_mobile_friendly":false,"gaps":["sem_reservas","sem_whatsapp","sem_analytics","sem_facebook_pixel","sem_mobile"],"status":"analisado"},{"id":278,"name":"Café Dutra","category":"restaurantes","nicho":"cafes","score":50,"lat":37.8457181,"lng":-25.230645,"municipality":"Sao Miguel, Acores","website":"http://www.fazendasdutra.com.br/","address":"Rua do Atalho 7C, Algarvia, 9630-222","has_website":true,"has_booking":false,"has_analytics":false,"has_facebook_pixel":false,"has_ssl":true,"is_mobile_friendly":false,"gaps":["sem_reservas","sem_whatsapp","sem_analytics","sem_facebook_pixel","sem_mobile"],"status":"analisado"},{"id":303,"name":"Café Félix","category":"restaurantes","nicho":"cafes","score":50,"lat":37.7428145,"lng":-25.6819686,"municipality":"Sao Miguel, Acores","website":"https://cafefelix.eatbu.com","address":null,"has_website":true,"has_booking":false,"has_analytics":false,"has_facebook_pixel":false,"has_ssl":true,"is_mobile_friendly":false,"gaps":["sem_reservas","sem_whatsapp","sem_analytics","sem_facebook_pixel","sem_mobile"],"status":"analisado"},{"id":305,"name":"Café Girassol","category":"restaurantes","nicho":"cafes","score":50,"lat":37.844564,"lng":-25.2995383,"municipality":"Sao Miguel, Acores","website":"https://cafegirassol.eatbu.com","address":"Rua Direita 81, Salga, 9630-282","has_website":true,"has_booking":false,"has_analytics":false,"has_facebook_pixel":false,"has_ssl":true,"is_mobile_friendly":false,"gaps":["sem_reservas","sem_whatsapp","sem_analytics","sem_facebook_pixel","sem_mobile"],"status":"analisado"},{"id":274,"name":"Café Juventude","category":"restaurantes","nicho":"cafes","score":50,"lat":37.7555976,"lng":-25.6985086,"municipality":"Sao Miguel, Acores","website":"https://cafe-juventude.eatbu.com","address":null,"has_website":true,"has_booking":false,"has_analytics":false,"has_facebook_pixel":false,"has_ssl":true,"is_mobile_friendly":false,"gaps":["sem_reservas","sem_whatsapp","sem_analytics","sem_facebook_pixel","sem_mobile"],"status":"analisado"},{"id":280,"name":"Café Royal","category":"restaurantes","nicho":"cafes","score":50,"lat":37.7398282,"lng":-25.6676691,"municipality":"Sao Miguel, Acores","website":"https://cafe-royal.eatbu.com","address":null,"has_website":true,"has_booking":false,"has_analytics":false,"has_facebook_pixel":false,"has_ssl":true,"is_mobile_friendly":false,"gaps":["sem_reservas","sem_whatsapp","sem_analytics","sem_facebook_pixel","sem_mobile"],"status":"analisado"},{"id":1179,"name":"Café Volta","category":"restaurantes","nicho":"cafes","score":50,"lat":38.5497245,"lng":-28.6296717,"municipality":"Faial, Acores","website":"http://www.yourplacetostay.com/","address":null,"has_website":true,"has_booking":false,"has_analytics":false,"has_facebook_pixel":false,"has_ssl":false,"is_mobile_friendly":true,"gaps":["sem_reservas","sem_whatsapp","sem_analytics","sem_facebook_pixel","sem_ssl"],"status":"analisado"},{"id":1046,"name":"Café da Ponte","category":"restaurantes","nicho":"cafes","score":50,"lat":38.7784776,"lng":-27.16961,"municipality":"Terceira, Acores","website":"https://www.cafedaponte.com","address":null,"has_website":true,"has_booking":false,"has_analytics":false,"has_facebook_pixel":false,"has_ssl":true,"is_mobile_friendly":true,"gaps":["sem_reservas","sem_whatsapp","sem_analytics","sem_facebook_pixel"],"status":"analisado"},{"id":1125,"name":"Café e Restaurante \"O Ocidental\"","category":"restaurantes","nicho":"restaurantes","score":50,"lat":38.529928,"lng":-28.6326143,"municipality":"Faial, Acores","website":"https://mapcarta.com/pt/N3042919647","address":"Rua Antiga Canada do Porto Pim, Horta (Angústias), 9900-038","has_website":true,"has_booking":false,"has_analytics":false,"has_facebook_pixel":false,"has_ssl":true,"is_mobile_friendly":true,"gaps":["sem_reservas","sem_whatsapp","sem_analytics","sem_facebook_pixel"],"status":"analisado"},{"id":460,"name":"Cais da Sardinha","category":"restaurantes","nicho":"bares","score":50,"lat":37.7374775,"lng":-25.6703761,"municipality":"Sao Miguel, Acores","website":"https://www.caisdasardinha.com/","address":null,"has_website":true,"has_booking":false,"has_analytics":false,"has_facebook_pixel":false,"has_ssl":true,"is_mobile_friendly":false,"gaps":["sem_reservas","sem_whatsapp","sem_analytics","sem_facebook_pixel","sem_mobile"],"status":"analisado"},{"id":86,"name":"Cantinho Da Mãe","category":"restaurantes","nicho":"restaurantes","score":50,"lat":37.7466428,"lng":-25.6684724,"municipality":"Sao Miguel, Acores","website":"https://www.cantinhodamae.pt","address":null,"has_website":true,"has_booking":false,"has_analytics":false,"has_facebook_pixel":false,"has_ssl":true,"is_mobile_friendly":false,"gaps":["sem_reservas","sem_whatsapp","sem_analytics","sem_facebook_pixel","sem_mobile"],"status":"analisado"},{"id":1111,"name":"Car repair","category":"servicos","nicho":"garagens","score":50,"lat":38.6722269,"lng":-27.278774,"municipality":"Terceira, Acores","website":"https://www.car-repair.com","address":null,"has_website":true,"has_booking":false,"has_analytics":false,"has_facebook_pixel":false,"has_ssl":true,"is_mobile_friendly":true,"gaps":["sem_reservas","sem_whatsapp","sem_analytics","sem_facebook_pixel"],"status":"analisado"},{"id":1112,"name":"Car repair","category":"servicos","nicho":"garagens","score":50,"lat":38.671678,"lng":-27.278999,"municipality":"Terceira, Acores","website":"https://www.car-repair.com","address":null,"has_website":true,"has_booking":false,"has_analytics":false,"has_facebook_pixel":false,"has_ssl":true,"is_mobile_friendly":true,"gaps":["sem_reservas","sem_whatsapp","sem_analytics","sem_facebook_pixel"],"status":"analisado"},{"id":1216,"name":"Caracol Torrié Cafeé","category":"restaurantes","nicho":"restaurantes","score":50,"lat":38.4341365,"lng":-28.4564788,"municipality":"Pico, Acores","website":"https://webtourist.vacations/gastronomy-eat-drink/portugal/autonomous-region-of-the-azores/madalena-azores/restaurants-1/caracol-torrie-cafee/","address":null,"has_website":true,"has_booking":false,"has_analytics":false,"has_facebook_pixel":false,"has_ssl":true,"is_mobile_friendly":true,"gaps":["sem_reservas","sem_whatsapp","sem_analytics","sem_facebook_pixel"],"status":"analisado"},{"id":615,"name":"Casa C'Alma","category":"alojamento","nicho":"alojamento_local","score":50,"lat":37.8506873,"lng":-25.2569642,"municipality":"Sao Miguel, Acores","website":"https://casa-calma.com","address":"Rua das Almas 75, Feteira Pequena - Santana, 9630-312","has_website":true,"has_booking":false,"has_analytics":false,"has_facebook_pixel":false,"has_ssl":true,"is_mobile_friendly":true,"gaps":["sem_reservas","sem_whatsapp","sem_analytics","sem_facebook_pixel"],"status":"analisado"},{"id":836,"name":"Casa Cheia","category":"servicos","nicho":"supermercados","score":50,"lat":37.7468684,"lng":-25.246769,"municipality":"Sao Miguel, Acores","website":"http://www.casacheiaonline.com/","address":null,"has_website":true,"has_booking":false,"has_analytics":false,"has_facebook_pixel":false,"has_ssl":false,"is_mobile_friendly":true,"gaps":["sem_reservas","sem_whatsapp","sem_analytics","sem_facebook_pixel","sem_ssl"],"status":"analisado"},{"id":845,"name":"Casa Cheia","category":"servicos","nicho":"supermercados","score":50,"lat":37.8448852,"lng":-25.1633062,"municipality":"Sao Miguel, Acores","website":"http://www.casacheiaonline.com","address":"Estrada Regional 33, Lomba da Fazenda, 9630-103","has_website":true,"has_booking":false,"has_analytics":false,"has_facebook_pixel":false,"has_ssl":false,"is_mobile_friendly":true,"gaps":["sem_reservas","sem_whatsapp","sem_analytics","sem_facebook_pixel","sem_ssl"],"status":"analisado"},{"id":868,"name":"Casa Cheia","category":"servicos","nicho":"supermercados","score":50,"lat":37.831351,"lng":-25.146284,"municipality":"Sao Miguel, Acores","website":"http://www.casacheiaonline.com/casacheia","address":"Rua António Alves de Oiveira 16;18, Nordeste, 9630-147","has_website":true,"has_booking":false,"has_analytics":false,"has_facebook_pixel":false,"has_ssl":false,"is_mobile_friendly":true,"gaps":["sem_reservas","sem_whatsapp","sem_analytics","sem_facebook_pixel","sem_ssl"],"status":"analisado"},{"id":900,"name":"Casa Cheia","category":"servicos","nicho":"supermercados","score":50,"lat":37.73512,"lng":-25.6772605,"municipality":"Sao Miguel, Acores","website":"https://www.casacheiaonline.com/","address":"Rua José Bensaúde","has_website":true,"has_booking":false,"has_analytics":false,"has_facebook_pixel":false,"has_ssl":true,"is_mobile_friendly":true,"gaps":["sem_reservas","sem_whatsapp","sem_analytics","sem_facebook_pixel"],"status":"analisado"},{"id":550,"name":"Casa Felicitas","category":"alojamento","nicho":"alojamento_local","score":50,"lat":37.8997787,"lng":-25.7567149,"municipality":"Sao Miguel, Acores","website":"http://www.casa-felicitas.com/","address":null,"has_website":true,"has_booking":false,"has_analytics":false,"has_facebook_pixel":false,"has_ssl":false,"is_mobile_friendly":true,"gaps":["sem_reservas","sem_whatsapp","sem_analytics","sem_facebook_pixel","sem_ssl"],"status":"analisado"},{"id":582,"name":"Casa Mira Mar (AL)","category":"alojamento","nicho":"alojamento_local","score":50,"lat":37.8453212,"lng":-25.2296335,"municipality":"Sao Miguel, Acores","website":"https://mapcarta.com/pt/N5188074284","address":"Rua do Teatro 7, Algarvia, 9630-223","has_website":true,"has_booking":false,"has_analytics":false,"has_facebook_pixel":false,"has_ssl":true,"is_mobile_friendly":true,"gaps":["sem_reservas","sem_whatsapp","sem_analytics","sem_facebook_pixel"],"status":"analisado"},{"id":587,"name":"Casa da Burra (AL)","category":"alojamento","nicho":"alojamento_local","score":50,"lat":37.8493996,"lng":-25.1992461,"municipality":"Sao Miguel, Acores","website":"https://mapcarta.com/N5214116762","address":"Rua das Escolas 7, São Pedro de Nordestinho, 9630-255","has_website":true,"has_booking":false,"has_analytics":false,"has_facebook_pixel":false,"has_ssl":true,"is_mobile_friendly":true,"gaps":["sem_reservas","sem_whatsapp","sem_analytics","sem_facebook_pixel"],"status":"analisado"},{"id":659,"name":"Casa das Arcadas","category":"alojamento","nicho":"alojamento_local","score":50,"lat":37.7405775,"lng":-25.6662067,"municipality":"Sao Miguel, Acores","website":"https://2rcazoreshousing.com/en/","address":"Rua dos Mercadores 77","has_website":true,"has_booking":false,"has_analytics":false,"has_facebook_pixel":false,"has_ssl":true,"is_mobile_friendly":true,"gaps":["sem_reservas","sem_whatsapp","sem_analytics","sem_facebook_pixel"],"status":"analisado"},{"id":596,"name":"Casa das Dias","category":"alojamento","nicho":"alojamento_local","score":50,"lat":37.7138047,"lng":-25.438952,"municipality":"Sao Miguel, Acores","website":"https://www.homeaway.pt/arrendamento-ferias/p1607325","address":null,"has_website":true,"has_booking":false,"has_analytics":false,"has_facebook_pixel":false,"has_ssl":true,"is_mobile_friendly":true,"gaps":["sem_reservas","sem_whatsapp","sem_analytics","sem_facebook_pixel"],"status":"analisado"},{"id":505,"name":"Casa do Mercado","category":"alojamento","nicho":"hoteis","score":50,"lat":37.7410428,"lng":-25.6648033,"municipality":"Sao Miguel, Acores","website":"https://2rcazoreshousing.com","address":"Largo de Camões 21, 9500-349","has_website":true,"has_booking":false,"has_analytics":false,"has_facebook_pixel":false,"has_ssl":true,"is_mobile_friendly":true,"gaps":["sem_reservas","sem_whatsapp","sem_analytics","sem_facebook_pixel"],"status":"analisado"},{"id":586,"name":"Casa do Outeiro (TER/CC)","category":"alojamento","nicho":"alojamento_local","score":50,"lat":37.8500907,"lng":-25.1939899,"municipality":"Sao Miguel, Acores","website":"https://mapcarta.com/pt/N5214080987","address":"Rua do Outeiro 3, São Pedro de Nordestinho, 9630-248","has_website":true,"has_booking":false,"has_analytics":false,"has_facebook_pixel":false,"has_ssl":true,"is_mobile_friendly":true,"gaps":["sem_reservas","sem_whatsapp","sem_analytics","sem_facebook_pixel"],"status":"analisado"},{"id":385,"name":"Cascara","category":"restaurantes","nicho":"cafes","score":50,"lat":37.7393125,"lng":-25.6728077,"municipality":"Sao Miguel, Acores","website":"https://www.cascara.com","address":"Rua do Diário dos Açores 26","has_website":true,"has_booking":false,"has_analytics":false,"has_facebook_pixel":false,"has_ssl":true,"is_mobile_friendly":false,"gaps":["sem_reservas","sem_whatsapp","sem_analytics","sem_facebook_pixel","sem_mobile"],"status":"analisado"},{"id":735,"name":"Cento Medico","category":"clinicas","nicho":"medicos","score":50,"lat":37.743733,"lng":-25.6630578,"municipality":"Sao Miguel, Acores","website":"https://mapcarta.com/pt/N12050193344","address":null,"has_website":true,"has_booking":false,"has_analytics":false,"has_facebook_pixel":false,"has_ssl":true,"is_mobile_friendly":true,"gaps":["sem_reservas","sem_whatsapp","sem_analytics","sem_facebook_pixel"],"status":"analisado"},{"id":74,"name":"Central Garden","category":"restaurantes","nicho":"restaurantes","score":50,"lat":37.7483832,"lng":-25.2445836,"municipality":"Sao Miguel, Acores","website":"https://www.centralgarden.pt","address":null,"has_website":true,"has_booking":false,"has_analytics":false,"has_facebook_pixel":false,"has_ssl":true,"is_mobile_friendly":false,"gaps":["sem_reservas","sem_whatsapp","sem_analytics","sem_facebook_pixel","sem_mobile"],"status":"analisado"},{"id":1192,"name":"Centro de Desenvolvimento Infanto-Juvenil dos Açores","category":"clinicas","nicho":"clinicas","score":50,"lat":38.5305056,"lng":-28.634852,"municipality":"Faial, Acores","website":"https://www.cdija.pt/","address":"Rua Jaime Lopes (Feijó), Horta (Angústias), 9900-038","has_website":true,"has_booking":false,"has_analytics":false,"has_facebook_pixel":false,"has_ssl":true,"is_mobile_friendly":true,"gaps":["sem_reservas","sem_whatsapp","sem_analytics","sem_facebook_pixel"],"status":"analisado"},{"id":1094,"name":"Centro de Saúde da Praia da Vitória","category":"clinicas","nicho":"clinicas","score":50,"lat":38.7291989,"lng":-27.0653772,"municipality":"Terceira, Acores","website":"https://usiterceira.azores.gov.pt/index.html","address":"Rua Cidade de Artesia, Praia da Vitória, 9760-586","has_website":true,"has_booking":false,"has_analytics":false,"has_facebook_pixel":false,"has_ssl":true,"is_mobile_friendly":true,"gaps":["sem_reservas","sem_whatsapp","sem_analytics","sem_facebook_pixel"],"status":"analisado"},{"id":686,"name":"Centro de Saúde das Furnas","category":"clinicas","nicho":"clinicas","score":50,"lat":37.7765359,"lng":-25.3139614,"municipality":"Sao Miguel, Acores","website":"https://mapcarta.com/pt/N762122440","address":null,"has_website":true,"has_booking":false,"has_analytics":false,"has_facebook_pixel":false,"has_ssl":true,"is_mobile_friendly":true,"gaps":["sem_reservas","sem_whatsapp","sem_analytics","sem_facebook_pixel"],"status":"analisado"},{"id":1091,"name":"Centro de Saúde de Angra do Heroísmo","category":"clinicas","nicho":"clinicas","score":50,"lat":38.661818,"lng":-27.2129462,"municipality":"Terceira, Acores","website":"https://usiterceira.azores.gov.pt/index.html","address":"Canada dos Melancólicos 2, Angra do Heroísmo, 9700-869","has_website":true,"has_booking":false,"has_analytics":false,"has_facebook_pixel":false,"has_ssl":true,"is_mobile_friendly":true,"gaps":["sem_reservas","sem_whatsapp","sem_analytics","sem_facebook_pixel"],"status":"analisado"},{"id":1314,"name":"Charlie's Place","category":"restaurantes","nicho":"cafes","score":50,"lat":38.6820031,"lng":-28.2096114,"municipality":"Sao Jorge, Acores","website":"https://www.charliesplace.com","address":null,"has_website":true,"has_booking":false,"has_analytics":false,"has_facebook_pixel":false,"has_ssl":true,"is_mobile_friendly":true,"gaps":["sem_reservas","sem_whatsapp","sem_analytics","sem_facebook_pixel"],"status":"analisado"},{"id":758,"name":"Claudia","category":"saloes","nicho":"cabeleireiros","score":50,"lat":37.8331999,"lng":-25.3879116,"municipality":"Sao Miguel, Acores","website":"https://claudia.com","address":null,"has_website":true,"has_booking":false,"has_analytics":false,"has_facebook_pixel":false,"has_ssl":true,"is_mobile_friendly":false,"gaps":["sem_reservas","sem_whatsapp","sem_analytics","sem_facebook_pixel","sem_mobile"],"status":"analisado"},{"id":459,"name":"Corsicada","category":"restaurantes","nicho":"bares","score":50,"lat":37.7401584,"lng":-25.6654981,"municipality":"Sao Miguel, Acores","website":"https://mapcarta.com/pt/N11267168363","address":null,"has_website":true,"has_booking":false,"has_analytics":false,"has_facebook_pixel":false,"has_ssl":true,"is_mobile_friendly":true,"gaps":["sem_reservas","sem_whatsapp","sem_analytics","sem_facebook_pixel"],"status":"analisado"},{"id":1335,"name":"Costa do Sol","category":"restaurantes","nicho":"restaurantes","score":50,"lat":39.0871138,"lng":-28.0087299,"municipality":"Graciosa, Acores","website":"https://www.costadosol.com","address":null,"has_website":true,"has_booking":false,"has_analytics":false,"has_facebook_pixel":false,"has_ssl":true,"is_mobile_friendly":true,"gaps":["sem_reservas","sem_whatsapp","sem_analytics","sem_facebook_pixel"],"status":"analisado"},{"id":573,"name":"Country Side Relax House (AL)","category":"alojamento","nicho":"alojamento_local","score":50,"lat":37.8588426,"lng":-25.2638088,"municipality":"Sao Miguel, Acores","website":"https://azoresrentalhouses.wordpress.com/","address":"Rua da Igreja, Achada, 9630-016","has_website":true,"has_booking":false,"has_analytics":false,"has_facebook_pixel":false,"has_ssl":true,"is_mobile_friendly":true,"gaps":["sem_reservas","sem_whatsapp","sem_analytics","sem_facebook_pixel"],"status":"analisado"},{"id":1010,"name":"Dona Pizza","category":"restaurantes","nicho":"restaurantes","score":50,"lat":38.6571673,"lng":-27.2144111,"municipality":"Terceira, Acores","website":"https://nonnas.pt/","address":"Rua da Guarita, Angra do Heroismo","has_website":true,"has_booking":false,"has_analytics":true,"has_facebook_pixel":false,"has_ssl":true,"is_mobile_friendly":true,"gaps":["sem_reservas","sem_whatsapp","sem_facebook_pixel"],"status":"analisado"},{"id":540,"name":"DoubleTree by Hilton Lagoa Azores","category":"alojamento","nicho":"hoteis","score":50,"lat":37.7493634,"lng":-25.5810235,"municipality":"Sao Miguel, Acores","website":"https://www.hilton.com/en/hotels/pdlladi-doubletree-lagoa-azores/","address":"Avenida da Inovação - Y Gama, Lagoa, 9560-421","has_website":true,"has_booking":false,"has_analytics":true,"has_facebook_pixel":true,"has_ssl":true,"is_mobile_friendly":true,"gaps":["sem_reservas","sem_whatsapp"],"status":"analisado"},{"id":1117,"name":"Eduardo","category":"servicos","nicho":"garagens","score":50,"lat":38.7909257,"lng":-27.2210532,"municipality":"Terceira, Acores","website":"https://www.eduardo.pt","address":null,"has_website":true,"has_booking":false,"has_analytics":false,"has_facebook_pixel":false,"has_ssl":true,"is_mobile_friendly":false,"gaps":["sem_reservas","sem_whatsapp","sem_analytics","sem_facebook_pixel","sem_mobile"],"status":"analisado"},{"id":182,"name":"Eh Pá","category":"restaurantes","nicho":"restaurantes","score":50,"lat":37.8988687,"lng":-25.7637239,"municipality":"Sao Miguel, Acores","website":"https://ehpa.com","address":"Estrada Regional N 1-1ª 75A","has_website":true,"has_booking":false,"has_analytics":false,"has_facebook_pixel":false,"has_ssl":true,"is_mobile_friendly":false,"gaps":["sem_reservas","sem_whatsapp","sem_analytics","sem_facebook_pixel","sem_mobile"],"status":"analisado"},{"id":439,"name":"Energie Bar","category":"restaurantes","nicho":"bares","score":50,"lat":37.8451371,"lng":-25.1612649,"municipality":"Sao Miguel, Acores","website":"https://energie-bar.com","address":"Rua Dinis José da Silva 8, Lomba da Fazenda, 9630-128","has_website":true,"has_booking":false,"has_analytics":false,"has_facebook_pixel":false,"has_ssl":true,"is_mobile_friendly":true,"gaps":["sem_reservas","sem_whatsapp","sem_analytics","sem_facebook_pixel"],"status":"analisado"},{"id":719,"name":"Farmácia da Ribeirinha","category":"clinicas","nicho":"farmacias","score":50,"lat":37.8268057,"lng":-25.5004765,"municipality":"Sao Miguel, Acores","website":"https://www.findhealthclinics.com/PT/Ribeira-Grande/201238486583961/Farmácia-da-Ribeirinha","address":null,"has_website":true,"has_booking":false,"has_analytics":false,"has_facebook_pixel":false,"has_ssl":true,"is_mobile_friendly":false,"gaps":["sem_reservas","sem_whatsapp","sem_analytics","sem_facebook_pixel","sem_mobile"],"status":"analisado"},{"id":1215,"name":"Font Cousine","category":"restaurantes","nicho":"restaurantes","score":50,"lat":38.4134463,"lng":-28.2830516,"municipality":"Pico, Acores","website":"https://mapcarta.com/pt/N3268291260","address":null,"has_website":true,"has_booking":false,"has_analytics":false,"has_facebook_pixel":false,"has_ssl":true,"is_mobile_friendly":true,"gaps":["sem_reservas","sem_whatsapp","sem_analytics","sem_facebook_pixel"],"status":"analisado"},{"id":183,"name":"Forte Terrace","category":"restaurantes","nicho":"restaurantes","score":50,"lat":37.7488997,"lng":-25.6318726,"municipality":"Sao Miguel, Acores","website":"https://www.thefork.pt/restaurante/forte-terrace-r841659","address":null,"has_website":true,"has_booking":false,"has_analytics":false,"has_facebook_pixel":false,"has_ssl":true,"is_mobile_friendly":false,"gaps":["sem_reservas","sem_whatsapp","sem_analytics","sem_facebook_pixel","sem_mobile"],"status":"analisado"},{"id":986,"name":"Fumeiro São João","category":"restaurantes","nicho":"restaurantes","score":50,"lat":38.6551787,"lng":-27.219402,"municipality":"Terceira, Acores","website":"https://mapcarta.com/pt/N12895684604","address":"Rua de São João 82","has_website":true,"has_booking":false,"has_analytics":false,"has_facebook_pixel":false,"has_ssl":true,"is_mobile_friendly":true,"gaps":["sem_reservas","sem_whatsapp","sem_analytics","sem_facebook_pixel"],"status":"analisado"},{"id":485,"name":"Furnas Lake Forest Living","category":"alojamento","nicho":"hoteis","score":50,"lat":37.7493182,"lng":-25.3241721,"municipality":"Sao Miguel, Acores","website":"http://www.furnaslakevillas.pt/","address":null,"has_website":true,"has_booking":false,"has_analytics":false,"has_facebook_pixel":false,"has_ssl":false,"is_mobile_friendly":true,"gaps":["sem_reservas","sem_whatsapp","sem_analytics","sem_facebook_pixel","sem_ssl"],"status":"analisado"},{"id":1018,"name":"Galanta","category":"restaurantes","nicho":"restaurantes","score":50,"lat":38.7544655,"lng":-27.1399374,"municipality":"Terceira, Acores","website":"https://galanta.com","address":null,"has_website":true,"has_booking":false,"has_analytics":true,"has_facebook_pixel":true,"has_ssl":true,"is_mobile_friendly":true,"gaps":["sem_reservas","sem_whatsapp"],"status":"analisado"},{"id":383,"name":"Game On","category":"restaurantes","nicho":"cafes","score":50,"lat":37.7420818,"lng":-25.6653191,"municipality":"Sao Miguel, Acores","website":"https://www.gameon.cafe/","address":"Rua do Mercado 16","has_website":true,"has_booking":false,"has_analytics":false,"has_facebook_pixel":false,"has_ssl":true,"is_mobile_friendly":true,"gaps":["sem_reservas","sem_whatsapp","sem_analytics","sem_facebook_pixel"],"status":"analisado"},{"id":103,"name":"Gastronomo","category":"restaurantes","nicho":"restaurantes","score":50,"lat":37.7427,"lng":-25.6539101,"municipality":"Sao Miguel, Acores","website":"https://www.gastronomo.com","address":null,"has_website":true,"has_booking":false,"has_analytics":false,"has_facebook_pixel":false,"has_ssl":true,"is_mobile_friendly":true,"gaps":["sem_reservas","sem_whatsapp","sem_analytics","sem_facebook_pixel"],"status":"analisado"},{"id":1143,"name":"Genuíno","category":"restaurantes","nicho":"restaurantes","score":50,"lat":38.5263372,"lng":-28.6272783,"municipality":"Faial, Acores","website":"https://www.genuino.pt/","address":"Areinha Velha 9, Horta (Angústias), 9900-011","has_website":true,"has_booking":false,"has_analytics":true,"has_facebook_pixel":false,"has_ssl":true,"is_mobile_friendly":true,"gaps":["sem_reservas","sem_whatsapp","sem_facebook_pixel"],"status":"analisado"},{"id":742,"name":"Ginó - Cabeleireiro","category":"saloes","nicho":"cabeleireiros","score":50,"lat":37.8332388,"lng":-25.1456817,"municipality":"Sao Miguel, Acores","website":"https://mapcarta.com/pt/N2271846494","address":"Rua da Travessa 4, Nordeste, 9630-145","has_website":true,"has_booking":false,"has_analytics":false,"has_facebook_pixel":false,"has_ssl":true,"is_mobile_friendly":true,"gaps":["sem_reservas","sem_whatsapp","sem_analytics","sem_facebook_pixel"],"status":"analisado"},{"id":663,"name":"Gorgeous House","category":"alojamento","nicho":"alojamento_local","score":50,"lat":37.760759,"lng":-25.6545811,"municipality":"Sao Miguel, Acores","website":"https://www.gorgeoushouse.com","address":"Caminho do Pico do Funcho 94","has_website":true,"has_booking":false,"has_analytics":false,"has_facebook_pixel":false,"has_ssl":true,"is_mobile_friendly":false,"gaps":["sem_reservas","sem_whatsapp","sem_analytics","sem_facebook_pixel","sem_mobile"],"status":"analisado"},{"id":657,"name":"Guest House Bella Italia","category":"alojamento","nicho":"alojamento_local","score":50,"lat":37.7383004,"lng":-25.6725007,"municipality":"Sao Miguel, Acores","website":"https://2rcazoreshousing.com/en/","address":null,"has_website":true,"has_booking":false,"has_analytics":false,"has_facebook_pixel":false,"has_ssl":true,"is_mobile_friendly":true,"gaps":["sem_reservas","sem_whatsapp","sem_analytics","sem_facebook_pixel"],"status":"analisado"},{"id":1364,"name":"Hotel Praia de Lobos","category":"alojamento","nicho":"hoteis","score":50,"lat":36.955597,"lng":-25.1423265,"municipality":"Santa Maria, Acores","website":"https://www.hotel-praiadelobos.pt/","address":"Travessa do Mercado, Vila do Porto, 9580-525","has_website":true,"has_booking":false,"has_analytics":false,"has_facebook_pixel":false,"has_ssl":true,"is_mobile_friendly":true,"gaps":["sem_reservas","sem_whatsapp","sem_analytics","sem_facebook_pixel"],"status":"analisado"},{"id":1326,"name":"Hotel Soares Neto","category":"alojamento","nicho":"hoteis","score":50,"lat":38.6797216,"lng":-28.2047275,"municipality":"Sao Jorge, Acores","website":"https://hotelsoaresneto.pt/","address":null,"has_website":true,"has_booking":false,"has_analytics":false,"has_facebook_pixel":false,"has_ssl":true,"is_mobile_friendly":false,"gaps":["sem_reservas","sem_whatsapp","sem_analytics","sem_facebook_pixel","sem_mobile"],"status":"analisado"},{"id":1102,"name":"Instituto de Belleza","category":"saloes","nicho":"cabeleireiros","score":50,"lat":38.6553446,"lng":-27.2181097,"municipality":"Terceira, Acores","website":"https://www.institutodebelleza.com","address":null,"has_website":true,"has_booking":false,"has_analytics":false,"has_facebook_pixel":false,"has_ssl":true,"is_mobile_friendly":false,"gaps":["sem_reservas","sem_whatsapp","sem_analytics","sem_facebook_pixel","sem_mobile"],"status":"analisado"},{"id":180,"name":"Jewel of India","category":"restaurantes","nicho":"restaurantes","score":50,"lat":37.7395897,"lng":-25.6733496,"municipality":"Sao Miguel, Acores","website":"https://jewelofindia.com","address":null,"has_website":true,"has_booking":false,"has_analytics":false,"has_facebook_pixel":false,"has_ssl":true,"is_mobile_friendly":false,"gaps":["sem_reservas","sem_whatsapp","sem_analytics","sem_facebook_pixel","sem_mobile"],"status":"analisado"},{"id":1126,"name":"Jin Li Lai","category":"restaurantes","nicho":"restaurantes","score":50,"lat":38.5296337,"lng":-28.6269671,"municipality":"Faial, Acores","website":"https://www.jinlilai.com","address":"Rua Vasco da Gama, Horta (Angústias), 9900-017","has_website":true,"has_booking":false,"has_analytics":false,"has_facebook_pixel":false,"has_ssl":true,"is_mobile_friendly":false,"gaps":["sem_reservas","sem_whatsapp","sem_analytics","sem_facebook_pixel","sem_mobile"],"status":"analisado"},{"id":463,"name":"Jubileu","category":"restaurantes","nicho":"bares","score":50,"lat":37.7143351,"lng":-25.515613,"municipality":"Sao Miguel, Acores","website":"https://www.jubileu.com","address":null,"has_website":true,"has_booking":false,"has_analytics":false,"has_facebook_pixel":false,"has_ssl":true,"is_mobile_friendly":false,"gaps":["sem_reservas","sem_whatsapp","sem_analytics","sem_facebook_pixel","sem_mobile"],"status":"analisado"},{"id":61,"name":"Já Se Sabe","category":"restaurantes","nicho":"restaurantes","score":50,"lat":37.7733807,"lng":-25.3160916,"municipality":"Sao Miguel, Acores","website":"https://jasesabe.pt","address":null,"has_website":true,"has_booking":false,"has_analytics":true,"has_facebook_pixel":false,"has_ssl":true,"is_mobile_friendly":true,"gaps":["sem_reservas","sem_whatsapp","sem_facebook_pixel"],"status":"analisado"},{"id":411,"name":"King burguer","category":"restaurantes","nicho":"bares","score":50,"lat":37.7727014,"lng":-25.3161226,"municipality":"Sao Miguel, Acores","website":"https://www.burgerking.pt/pt/?utm_source=braze&utm_medium=email_growth&utm_campaign=CampoWeb_deeplink&utm_term=Email&utm_content=conversion_HD_Restaurante","address":null,"has_website":true,"has_booking":false,"has_analytics":false,"has_facebook_pixel":false,"has_ssl":true,"is_mobile_friendly":true,"gaps":["sem_reservas","sem_whatsapp","sem_analytics","sem_facebook_pixel"],"status":"analisado"},{"id":227,"name":"Lagoa Azul","category":"restaurantes","nicho":"restaurantes","score":50,"lat":37.8610309,"lng":-25.7942045,"municipality":"Sao Miguel, Acores","website":"https://www.lagoaazul.com","address":"Rua da Caridade 18, 9555-198","has_website":true,"has_booking":false,"has_analytics":false,"has_facebook_pixel":false,"has_ssl":true,"is_mobile_friendly":false,"gaps":["sem_reservas","sem_whatsapp","sem_analytics","sem_facebook_pixel","sem_mobile"],"status":"analisado"},{"id":119,"name":"Lan's Pizzaria, Exotic Food & Vegetariano","category":"restaurantes","nicho":"restaurantes","score":50,"lat":37.7403458,"lng":-25.6696912,"municipality":"Sao Miguel, Acores","website":"http://www.lans.pt/","address":"Rua Manuel da Ponte 41","has_website":true,"has_booking":false,"has_analytics":false,"has_facebook_pixel":false,"has_ssl":false,"is_mobile_friendly":false,"gaps":["sem_reservas","sem_whatsapp","sem_analytics","sem_facebook_pixel","sem_ssl","sem_mobile"],"status":"analisado"},{"id":265,"name":"Lanchonete da Cidade","category":"restaurantes","nicho":"cafes","score":50,"lat":37.7481344,"lng":-25.6650983,"municipality":"Sao Miguel, Acores","website":"https://lanchonetedacidade.eatbu.com","address":"Rua de São Gonçalo 69, Ponta Delgada, 9500-343","has_website":true,"has_booking":false,"has_analytics":false,"has_facebook_pixel":false,"has_ssl":true,"is_mobile_friendly":false,"gaps":["sem_reservas","sem_whatsapp","sem_analytics","sem_facebook_pixel","sem_mobile"],"status":"analisado"},{"id":267,"name":"Lanchonete da Cidade","category":"restaurantes","nicho":"cafes","score":50,"lat":37.740499,"lng":-25.6712689,"municipality":"Sao Miguel, Acores","website":"https://lanchonetedacidade.pt","address":"Largo dos Mártires da Pátria, Ponta Delgada, 9500","has_website":true,"has_booking":false,"has_analytics":false,"has_facebook_pixel":false,"has_ssl":true,"is_mobile_friendly":false,"gaps":["sem_reservas","sem_whatsapp","sem_analytics","sem_facebook_pixel","sem_mobile"],"status":"analisado"},{"id":673,"name":"Lena's Home","category":"alojamento","nicho":"alojamento_local","score":50,"lat":37.7425894,"lng":-25.6739195,"municipality":"Sao Miguel, Acores","website":"http://lenas-rentals.weebly.com","address":"Rua São Francisco Xavier 25, 9500-243","has_website":true,"has_booking":false,"has_analytics":false,"has_facebook_pixel":false,"has_ssl":false,"is_mobile_friendly":true,"gaps":["sem_reservas","sem_whatsapp","sem_analytics","sem_facebook_pixel","sem_ssl"],"status":"analisado"},{"id":743,"name":"Maciel","category":"saloes","nicho":"cabeleireiros","score":50,"lat":37.8127802,"lng":-25.5276266,"municipality":"Sao Miguel, Acores","website":"https://www.maciel.pt","address":null,"has_website":true,"has_booking":false,"has_analytics":false,"has_facebook_pixel":false,"has_ssl":true,"is_mobile_friendly":false,"gaps":["sem_reservas","sem_whatsapp","sem_analytics","sem_facebook_pixel","sem_mobile"],"status":"analisado"},{"id":569,"name":"Mafalda casa","category":"alojamento","nicho":"alojamento_local","score":50,"lat":37.7533236,"lng":-25.660062,"municipality":"Sao Miguel, Acores","website":"https://mapcarta.com/pt/N4911334821","address":null,"has_website":true,"has_booking":false,"has_analytics":false,"has_facebook_pixel":false,"has_ssl":true,"is_mobile_friendly":true,"gaps":["sem_reservas","sem_whatsapp","sem_analytics","sem_facebook_pixel"],"status":"analisado"},{"id":137,"name":"Mascote","category":"restaurantes","nicho":"restaurantes","score":50,"lat":37.7398731,"lng":-25.6678091,"municipality":"Sao Miguel, Acores","website":"https://www.mascote.pt","address":null,"has_website":true,"has_booking":false,"has_analytics":false,"has_facebook_pixel":false,"has_ssl":true,"is_mobile_friendly":true,"gaps":["sem_reservas","sem_whatsapp","sem_analytics","sem_facebook_pixel"],"status":"analisado"},{"id":808,"name":"Mercado Do Colégio","category":"servicos","nicho":"supermercados","score":50,"lat":37.7432017,"lng":-25.6698342,"municipality":"Sao Miguel, Acores","website":"https://minimercado-do-colegio.business.site/","address":"Largo do Colégio 15, Ponta Delgada, 9500-054","has_website":true,"has_booking":false,"has_analytics":false,"has_facebook_pixel":false,"has_ssl":true,"is_mobile_friendly":true,"gaps":["sem_reservas","sem_whatsapp","sem_analytics","sem_facebook_pixel"],"status":"analisado"},{"id":470,"name":"Mercado Negro Porta 18","category":"restaurantes","nicho":"bares","score":50,"lat":37.7420965,"lng":-25.6652505,"municipality":"Sao Miguel, Acores","website":"https://agorium.pt/c/mercado-negro-porta-18-nn2nyk","address":"Rua do Mercado 18","has_website":true,"has_booking":false,"has_analytics":false,"has_facebook_pixel":false,"has_ssl":true,"is_mobile_friendly":true,"gaps":["sem_reservas","sem_whatsapp","sem_analytics","sem_facebook_pixel"],"status":"analisado"},{"id":988,"name":"Mercearia d'Angora","category":"restaurantes","nicho":"restaurantes","score":50,"lat":38.6555414,"lng":-27.2180496,"municipality":"Terceira, Acores","website":"https://mapcarta.com/pt/N12977506952","address":null,"has_website":true,"has_booking":false,"has_analytics":false,"has_facebook_pixel":false,"has_ssl":true,"is_mobile_friendly":true,"gaps":["sem_reservas","sem_whatsapp","sem_analytics","sem_facebook_pixel"],"status":"analisado"},{"id":814,"name":"Meu Super","category":"servicos","nicho":"supermercados","score":50,"lat":37.7211585,"lng":-25.5099363,"municipality":"Sao Miguel, Acores","website":"https://meusuper.pt","address":"Rua Da Trindade 50, Água de Pau, 9560-219","has_website":true,"has_booking":false,"has_analytics":false,"has_facebook_pixel":false,"has_ssl":true,"is_mobile_friendly":false,"gaps":["sem_reservas","sem_whatsapp","sem_analytics","sem_facebook_pixel","sem_mobile"],"status":"analisado"},{"id":826,"name":"Meu Super","category":"servicos","nicho":"supermercados","score":50,"lat":37.8485167,"lng":-25.8393599,"municipality":"Sao Miguel, Acores","website":"https://meusuper.pt","address":"Estrada Regional 86, Ginetes, 9555","has_website":true,"has_booking":false,"has_analytics":false,"has_facebook_pixel":false,"has_ssl":true,"is_mobile_friendly":false,"gaps":["sem_reservas","sem_whatsapp","sem_analytics","sem_facebook_pixel","sem_mobile"],"status":"analisado"},{"id":842,"name":"Meu Super","category":"servicos","nicho":"supermercados","score":50,"lat":37.7413241,"lng":-25.6815614,"municipality":"Sao Miguel, Acores","website":"https://meusuper.pt","address":"Rua Doutor Filipe da Cunha Álvares Cabral 1 R/C, Ponta Delgada, 9500-182","has_website":true,"has_booking":false,"has_analytics":false,"has_facebook_pixel":false,"has_ssl":true,"is_mobile_friendly":false,"gaps":["sem_reservas","sem_whatsapp","sem_analytics","sem_facebook_pixel","sem_mobile"],"status":"analisado"},{"id":846,"name":"Meu Super","category":"servicos","nicho":"supermercados","score":50,"lat":37.7467419,"lng":-25.2454741,"municipality":"Sao Miguel, Acores","website":"https://meusuper.pt","address":"Largo Camões 11, Povoação, 9650-411","has_website":true,"has_booking":false,"has_analytics":false,"has_facebook_pixel":false,"has_ssl":true,"is_mobile_friendly":false,"gaps":["sem_reservas","sem_whatsapp","sem_analytics","sem_facebook_pixel","sem_mobile"],"status":"analisado"},{"id":853,"name":"Meu Super","category":"servicos","nicho":"supermercados","score":50,"lat":37.7406481,"lng":-25.665696,"municipality":"Sao Miguel, Acores","website":"https://meusuper.pt","address":null,"has_website":true,"has_booking":false,"has_analytics":false,"has_facebook_pixel":false,"has_ssl":true,"is_mobile_friendly":false,"gaps":["sem_reservas","sem_whatsapp","sem_analytics","sem_facebook_pixel","sem_mobile"],"status":"analisado"},{"id":888,"name":"Meu Super","category":"servicos","nicho":"supermercados","score":50,"lat":37.7163219,"lng":-25.4341454,"municipality":"Sao Miguel, Acores","website":"https://meusuper.pt","address":null,"has_website":true,"has_booking":false,"has_analytics":false,"has_facebook_pixel":false,"has_ssl":true,"is_mobile_friendly":false,"gaps":["sem_reservas","sem_whatsapp","sem_analytics","sem_facebook_pixel","sem_mobile"],"status":"analisado"},{"id":891,"name":"Meu Super","category":"servicos","nicho":"supermercados","score":50,"lat":37.7421636,"lng":-25.6763915,"municipality":"Sao Miguel, Acores","website":"https://meusuper.pt","address":null,"has_website":true,"has_booking":false,"has_analytics":false,"has_facebook_pixel":false,"has_ssl":true,"is_mobile_friendly":false,"gaps":["sem_reservas","sem_whatsapp","sem_analytics","sem_facebook_pixel","sem_mobile"],"status":"analisado"},{"id":898,"name":"Meu Super","category":"servicos","nicho":"supermercados","score":50,"lat":37.7569394,"lng":-25.7222347,"municipality":"Sao Miguel, Acores","website":"https://meusuper.pt","address":null,"has_website":true,"has_booking":false,"has_analytics":false,"has_facebook_pixel":false,"has_ssl":true,"is_mobile_friendly":false,"gaps":["sem_reservas","sem_whatsapp","sem_analytics","sem_facebook_pixel","sem_mobile"],"status":"analisado"},{"id":929,"name":"Meu Super","category":"servicos","nicho":"supermercados","score":50,"lat":37.8232792,"lng":-25.8218079,"municipality":"Sao Miguel, Acores","website":"https://www.meusuper.pt","address":"Estrada Regional 139, Candelária, 9555","has_website":true,"has_booking":false,"has_analytics":false,"has_facebook_pixel":false,"has_ssl":true,"is_mobile_friendly":false,"gaps":["sem_reservas","sem_whatsapp","sem_analytics","sem_facebook_pixel","sem_mobile"],"status":"analisado"},{"id":35,"name":"Michel","category":"restaurantes","nicho":"restaurantes","score":50,"lat":37.7426903,"lng":-25.6586038,"municipality":"Sao Miguel, Acores","website":"https://michelrestaurant.com/","address":"Rua Engenheiro José Cordeiro 55-57, Ponta Delgada, 9500-311","has_website":true,"has_booking":false,"has_analytics":false,"has_facebook_pixel":false,"has_ssl":true,"is_mobile_friendly":true,"gaps":["sem_reservas","sem_whatsapp","sem_analytics","sem_facebook_pixel"],"status":"analisado"},