[
  {"id":"r001","name":"Pizzaria Bellavista","category":"restaurantes","lat":37.7412,"lng":-25.6748,"address":"R. da Boa Nova, 12, Ponta Delgada","phone":"+351912345678","email":"geral@bellavista.pt","website":null,"whatsapp":"351912345678","score":94,"municipality":"Ponta Delgada","has_website":false,"has_booking":false,"has_analytics":false,"has_facebook_pixel":false,"has_ssl":false,"is_mobile_friendly":false},
  {"id":"r002","name":"Tasca do Mar","category":"restaurantes","lat":37.7394,"lng":-25.6698,"address":"Av. Infante D. Henrique, 45, Ponta Delgada","phone":"+351963456789","email":"info@tascadomar.pt","website":"tascadomar.pt","whatsapp":null,"score":74,"municipality":"Ponta Delgada","has_website":true,"has_booking":false,"has_analytics":false,"has_facebook_pixel":false,"has_ssl":true,"is_mobile_friendly":true},
  {"id":"r003","name":"Cafe Atlantico","category":"restaurantes","lat":37.7428,"lng":-25.6731,"address":"R. Carvalho Arauju, 88, Ponta Delgada","phone":"+351912678901","email":null,"website":null,"whatsapp":"351912678901","score":88,"municipality":"Ponta Delgada","has_website":false,"has_booking":false,"has_analytics":false,"has_facebook_pixel":false,"has_ssl":false,"is_mobile_friendly":false},
  {"id":"r004","name":"O Caldeiro","category":"restaurantes","lat":37.7401,"lng":-25.6712,"address":"R. do Poco, 3, Ponta Delgada","phone":"+351964321098","email":"ocaldeiro@mail.pt","website":"ocaldeiro.pt","whatsapp":null,"score":61,"municipality":"Ponta Delgada","has_website":true,"has_booking":false,"has_analytics":true,"has_facebook_pixel":false,"has_ssl":true,"is_mobile_friendly":false},
  {"id":"r005","name":"Snack Bar A Gruta","category":"restaurantes","lat":37.7385,"lng":-25.5647,"address":"R. do Municipio, 7, Lagoa","phone":"+351962567890","email":null,"website":null,"whatsapp":"351962567890","score":91,"municipality":"Lagoa","has_website":false,"has_booking":false,"has_analytics":false,"has_facebook_pixel":false,"has_ssl":false,"is_mobile_friendly":false},
  {"id":"r006","name":"Restaurante O Mirante","category":"restaurantes","lat":37.7403,"lng":-25.5621,"address":"Largo da Republica, 2, Lagoa","phone":"+351913234567","email":"mirante@saude.pt","website":"restaurante-mirante.pt","whatsapp":null,"score":72,"municipality":"Lagoa","has_website":true,"has_booking":false,"has_analytics":false,"has_facebook_pixel":false,"has_ssl":true,"is_mobile_friendly":true},
  {"id":"r007","name":"Casa do Pao","category":"restaurantes","lat":37.8341,"lng":-25.5168,"address":"Av. Dr. Jose Rebelo, 15, Ribeira Grande","phone":"+351962890123","email":"casadopao@rcafe.pt","website":null,"whatsapp":"351962890123","score":87,"municipality":"Ribeira Grande","has_website":false,"has_booking":false,"has_analytics":false,"has_facebook_pixel":false,"has_ssl":false,"is_mobile_friendly":false},
  {"id":"r008","name":"Taberna da Ilha","category":"restaurantes","lat":37.7161,"lng":-25.4278,"address":"R. Serpa Pinto, 4, Vila Franca","phone":"+351963012345","email":null,"website":null,"whatsapp":null,"score":89,"municipality":"Vila Franca do Campo","has_website":false,"has_booking":false,"has_analytics":false,"has_facebook_pixel":false,"has_ssl":false,"is_mobile_friendly":false},
  {"id":"r009","name":"Ponto de Encontro","category":"restaurantes","lat":37.7761,"lng":-25.3178,"address":"R. das Furnas, 22, Furnas","phone":"+351912456789","email":"ponto@furnas.pt","website":"pontoencontro.pt","whatsapp":null,"score":68,"municipality":"Furnas","has_website":true,"has_booking":false,"has_analytics":true,"has_facebook_pixel":false,"has_ssl":true,"is_mobile_friendly":true},
  {"id":"r010","name":"Vista Mar Restaurante","category":"restaurantes","lat":37.8896,"lng":-25.8259,"address":"Largo dos Mosteiros, 1, Mosteiros","phone":"+351963789012","email":null,"website":null,"whatsapp":"351963789012","score":93,"municipality":"Mosteiros","has_website":false,"has_booking":false,"has_analytics":false,"has_facebook_pixel":false,"has_ssl":false,"is_mobile_friendly":false},
  {"id":"r011","name":"Marisqueira Acores","category":"restaurantes","lat":37.7418,"lng":-25.6685,"address":"R. de Lisboa, 33, Ponta Delgada","phone":"+351912901234","email":"marisqueira@acores.pt","website":"marisqueiracores.pt","whatsapp":"351912901234","score":76,"municipality":"Ponta Delgada","has_website":true,"has_booking":false,"has_analytics":false,"has_facebook_pixel":false,"has_ssl":true,"is_mobile_friendly":true},
  {"id":"r012","name":"Cantinho do Turista","category":"restaurantes","lat":37.8492,"lng":-25.1614,"address":"R. do Norte, 8, Nordeste","phone":"+351962123456","email":null,"website":null,"whatsapp":null,"score":91,"municipality":"Nordeste","has_website":false,"has_booking":false,"has_analytics":false,"has_facebook_pixel":false,"has_ssl":false,"is_mobile_friendly":false},
  {"id":"r013","name":"Alcides Restaurante","category":"restaurantes","lat":37.8328,"lng":-25.5181,"address":"R. Hintze Ribeiro, 5, Ribeira Grande","phone":"+351913567890","email":"alcides@rg.pt","website":"alcides.pt","whatsapp":null,"score":63,"municipality":"Ribeira Grande","has_website":true,"has_booking":false,"has_analytics":true,"has_facebook_pixel":false,"has_ssl":true,"is_mobile_friendly":true},
  {"id":"c001","name":"Clinica Dentaria Sao Miguel","category":"clinicas","lat":37.7432,"lng":-25.6719,"address":"Av. Joao XXI, 18, Ponta Delgada","phone":"+351296123456","email":"geral@clinicasaomiguel.pt","website":"clinicadentaria-sm.pt","whatsapp":null,"score":77,"municipality":"Ponta Delgada","has_website":true,"has_booking":false,"has_analytics":false,"has_facebook_pixel":false,"has_ssl":true,"is_mobile_friendly":false},
  {"id":"c002","name":"Fisioterapia Atlantica","category":"clinicas","lat":37.7421,"lng":-25.6742,"address":"R. do Poco, 14, Ponta Delgada","phone":"+351296234567","email":"info@fisioatlantica.pt","website":null,"whatsapp":null,"score":85,"municipality":"Ponta Delgada","has_website":false,"has_booking":false,"has_analytics":false,"has_facebook_pixel":false,"has_ssl":false,"is_mobile_friendly":false},
  {"id":"c003","name":"Centro Medico Lagoa","category":"clinicas","lat":37.7389,"lng":-25.5638,"address":"Estrada Regional, 52, Lagoa","phone":"+351296345678","email":"admin@centromedico.pt","website":"centromedicolagoa.pt","whatsapp":null,"score":71,"municipality":"Lagoa","has_website":true,"has_booking":false,"has_analytics":false,"has_facebook_pixel":false,"has_ssl":true,"is_mobile_friendly":true},
  {"id":"c004","name":"Clinica Psicologica PDL","category":"clinicas","lat":37.7445,"lng":-25.6701,"address":"R. Ernesto do Canto, 6, Ponta Delgada","phone":"+351912789012","email":"psicologia@pdl.pt","website":null,"whatsapp":null,"score":83,"municipality":"Ponta Delgada","has_website":false,"has_booking":false,"has_analytics":false,"has_facebook_pixel":false,"has_ssl":false,"is_mobile_friendly":false},
  {"id":"c005","name":"Ortopedia e Reabilitacao","category":"clinicas","lat":37.8338,"lng":-25.5162,"address":"Av. dos Combatentes, 9, Ribeira Grande","phone":"+351296456789","email":"ortopedia@rg.pt","website":"ortopediariberga.pt","whatsapp":null,"score":79,"municipality":"Ribeira Grande","has_website":true,"has_booking":false,"has_analytics":false,"has_facebook_pixel":false,"has_ssl":true,"is_mobile_friendly":false},
  {"id":"c006","name":"Clinica Veterinaria Acores","category":"clinicas","lat":37.7408,"lng":-25.6778,"address":"R. Vasco da Gama, 31, Ponta Delgada","phone":"+351296567890","email":"vet@acores.pt","website":"vetacores.pt","whatsapp":"351296567890","score":68,"municipality":"Ponta Delgada","has_website":true,"has_booking":false,"has_analytics":true,"has_facebook_pixel":false,"has_ssl":true,"is_mobile_friendly":true},
  {"id":"g001","name":"Fitness Club PDL","category":"ginasios","lat":37.7415,"lng":-25.6732,"address":"R. da Juventude, 20, Ponta Delgada","phone":"+351912890123","email":"info@fitnessclub.pt","website":"fitnessclubpdl.pt","whatsapp":null,"score":72,"municipality":"Ponta Delgada","has_website":true,"has_booking":false,"has_analytics":false,"has_facebook_pixel":false,"has_ssl":true,"is_mobile_friendly":true},
  {"id":"g002","name":"CrossFit Acores","category":"ginasios","lat":37.7401,"lng":-25.6755,"address":"Av. Antero de Quental, 44, Ponta Delgada","phone":"+351963901234","email":"crossfit@acores.pt","website":null,"whatsapp":"351963901234","score":81,"municipality":"Ponta Delgada","has_website":false,"has_booking":false,"has_analytics":false,"has_facebook_pixel":false,"has_ssl":false,"is_mobile_friendly":false},
  {"id":"g003","name":"Studio Yoga Sao Miguel","category":"ginasios","lat":37.7438,"lng":-25.6714,"address":"R. do Poco Velho, 3, Ponta Delgada","phone":"+351912012345","email":"yoga@saomiguel.pt","website":null,"whatsapp":"351912012345","score":88,"municipality":"Ponta Delgada","has_website":false,"has_booking":false,"has_analytics":false,"has_facebook_pixel":false,"has_ssl":false,"is_mobile_friendly":false},
  {"id":"g004","name":"Academia Artes Marciais","category":"ginasios","lat":37.8321,"lng":-25.5191,"address":"R. do Desporto, 7, Ribeira Grande","phone":"+351296678901","email":null,"website":null,"whatsapp":null,"score":79,"municipality":"Ribeira Grande","has_website":false,"has_booking":false,"has_analytics":false,"has_facebook_pixel":false,"has_ssl":false,"is_mobile_friendly":false},
  {"id":"g005","name":"Pilates Atlantico","category":"ginasios","lat":37.7426,"lng":-25.6726,"address":"Av. Marginal, 12, Ponta Delgada","phone":"+351913123456","email":"pilates@atlantico.pt","website":null,"whatsapp":"351913123456","score":84,"municipality":"Ponta Delgada","has_website":false,"has_booking":false,"has_analytics":false,"has_facebook_pixel":false,"has_ssl":false,"is_mobile_friendly":false},
  {"id":"a001","name":"Casa das Amendoeiras","category":"alojamento","lat":37.7751,"lng":-25.3182,"address":"Caminho das Furnas, 5, Furnas","phone":"+351912234567","email":"casaamendoeiras@gmail.com","website":null,"whatsapp":"351912234567","score":86,"municipality":"Furnas","has_website":false,"has_booking":false,"has_analytics":false,"has_facebook_pixel":false,"has_ssl":false,"is_mobile_friendly":false},
  {"id":"a002","name":"Quinta do Lago Azul","category":"alojamento","lat":37.8112,"lng":-25.7843,"address":"Estrada das Sete Cidades, Sete Cidades","phone":"+351963456789","email":"info@lagoazul.pt","website":"quintalagoazul.pt","whatsapp":null,"score":78,"municipality":"Ponta Delgada","has_website":true,"has_booking":false,"has_analytics":false,"has_facebook_pixel":false,"has_ssl":true,"is_mobile_friendly":false},
  {"id":"a003","name":"Guest House Nordeste","category":"alojamento","lat":37.8494,"lng":-25.1608,"address":"R. da Igreja, 2, Nordeste","phone":"+351912678901","email":null,"website":null,"whatsapp":null,"score":92,"municipality":"Nordeste","has_website":false,"has_booking":false,"has_analytics":false,"has_facebook_pixel":false,"has_ssl":false,"is_mobile_friendly":false},
  {"id":"a004","name":"Apartamentos Vista Oceano","category":"alojamento","lat":37.7388,"lng":-25.6822,"address":"Av. D. Manuel I, 88, Ponta Delgada","phone":"+351913789012","email":"vistaoceano@ap.pt","website":"apartamentos-vistaoceano.pt","whatsapp":"351913789012","score":73,"municipality":"Ponta Delgada","has_website":true,"has_booking":false,"has_analytics":false,"has_facebook_pixel":false,"has_ssl":true,"is_mobile_friendly":true},
  {"id":"a005","name":"Moradias Azores Dreams","category":"alojamento","lat":37.8329,"lng":-25.5184,"address":"R. da Praia, 14, Ribeira Grande","phone":"+351963012345","email":"azoresdreams@stay.pt","website":null,"whatsapp":"351963012345","score":83,"municipality":"Ribeira Grande","has_website":false,"has_booking":false,"has_analytics":false,"has_facebook_pixel":false,"has_ssl":false,"is_mobile_friendly":false},
  {"id":"s001","name":"Cabeleireiro Glamour","category":"saloes","lat":37.7419,"lng":-25.6708,"address":"R. dos Mercadores, 5, Ponta Delgada","phone":"+351912901234","email":null,"website":null,"whatsapp":"351912901234","score":87,"municipality":"Ponta Delgada","has_website":false,"has_booking":false,"has_analytics":false,"has_facebook_pixel":false,"has_ssl":false,"is_mobile_friendly":false},
  {"id":"s002","name":"Studio Beauty PDL","category":"saloes","lat":37.7433,"lng":-25.6722,"address":"R. Carvalho Araujo, 17, Ponta Delgada","phone":"+351963234567","email":"studio@beautypdl.pt","website":"studiobeautypdl.pt","whatsapp":null,"score":73,"municipality":"Ponta Delgada","has_website":true,"has_booking":false,"has_analytics":false,"has_facebook_pixel":false,"has_ssl":true,"is_mobile_friendly":false},
  {"id":"s003","name":"Nail Bar Acores","category":"saloes","lat":37.7409,"lng":-25.6741,"address":"Av. Afonso Henriques, 22, Ponta Delgada","phone":"+351912345098","email":"nails@acores.pt","website":null,"whatsapp":"351912345098","score":91,"municipality":"Ponta Delgada","has_website":false,"has_booking":false,"has_analytics":false,"has_facebook_pixel":false,"has_ssl":false,"is_mobile_friendly":false},
  {"id":"s004","name":"Barbearia Vintage","category":"saloes","lat":37.7424,"lng":-25.6693,"address":"R. de Lisboa, 9, Ponta Delgada","phone":"+351913456789","email":null,"website":null,"whatsapp":null,"score":84,"municipality":"Ponta Delgada","has_website":false,"has_booking":false,"has_analytics":false,"has_facebook_pixel":false,"has_ssl":false,"is_mobile_friendly":false},
  {"id":"s005","name":"Salao da Moda","category":"saloes","lat":37.7396,"lng":-25.5628,"address":"Largo do Municipio, 4, Lagoa","phone":"+351962789012","email":"salao@moda.pt","website":null,"whatsapp":"351962789012","score":82,"municipality":"Lagoa","has_website":false,"has_booking":false,"has_analytics":false,"has_facebook_pixel":false,"has_ssl":false,"is_mobile_friendly":false},
  {"id":"sv001","name":"Auto Reparacoes Acores","category":"servicos","lat":37.7398,"lng":-25.6812,"address":"Estrada da Circunvalacao, 45, Ponta Delgada","phone":"+351296789012","email":null,"website":null,"whatsapp":"351296789012","score":88,"municipality":"Ponta Delgada","has_website":false,"has_booking":false,"has_analytics":false,"has_facebook_pixel":false,"has_ssl":false,"is_mobile_friendly":false},
  {"id":"sv002","name":"Contabilidade Santos","category":"servicos","lat":37.7441,"lng":-25.6707,"address":"R. Ernesto do Canto, 12, Ponta Delgada","phone":"+351296890123","email":"santos@contabilidade.pt","website":"santos-contabilidade.pt","whatsapp":null,"score":69,"municipality":"Ponta Delgada","has_website":true,"has_booking":false,"has_analytics":false,"has_facebook_pixel":false,"has_ssl":true,"is_mobile_friendly":false},
  {"id":"sv003","name":"Imobiliaria Ilha Verde","category":"servicos","lat":37.7416,"lng":-25.6727,"address":"Av. Roberto Ivens, 34, Ponta Delgada","phone":"+351296901234","email":"info@ilhaverde.pt","website":"ilhaverde-imoveis.pt","whatsapp":"351296901234","score":74,"municipality":"Ponta Delgada","has_website":true,"has_booking":false,"has_analytics":false,"has_facebook_pixel":false,"has_ssl":true,"is_mobile_friendly":true},
  {"id":"sv004","name":"Lavandaria Express","category":"servicos","lat":37.7403,"lng":-25.6698,"address":"R. Machado dos Santos, 8, Ponta Delgada","phone":"+351963567890","email":null,"website":null,"whatsapp":null,"score":85,"municipality":"Ponta Delgada","has_website":false,"has_booking":false,"has_analytics":false,"has_facebook_pixel":false,"has_ssl":false,"is_mobile_friendly":false},
  {"id":"sv005","name":"Fotografia Acores Studio","category":"servicos","lat":37.7428,"lng":-25.6716,"address":"R. Dr. Bruno Tavares Carreiro, 2, Ponta Delgada","phone":"+351912678012","email":"foto@acores.pt","website":"fotografiacores.pt","whatsapp":"351912678012","score":76,"municipality":"Ponta Delgada","has_website":true,"has_booking":false,"has_analytics":false,"has_facebook_pixel":false,"has_ssl":true,"is_mobile_friendly":false}
]
